[
    {
        "date": "2023-08-16",
        "event": "10TH ANNUAL WASHINGTON INTERNATIONA (MD)",
        "section": "1: CHAMPIONSHIP",
        "link": "https://www.uschess.org/msa/XtblMain.php?202308166142.1",
        "pre-rating": 2392,
        "post-rating": 2393,
        "location": "ROCKVILLE, MD 20852",
        "final_rank": 41,
        "participants": 49,
        "long": -77.1516844,
        "lat": 39.0817985
    },
    {
        "date": "2023-07-13",
        "event": "2023 CHARLOTTE NORM SUPER SWISS (NC)",
        "section": "1: SUPER SWISS",
        "link": "https://www.uschess.org/msa/XtblMain.php?202307136472.1",
        "pre-rating": 2407,
        "post-rating": 2392,
        "location": "CHARLOTTE, NC 28210",
        "final_rank": 44,
        "participants": 75,
        "long": -80.8430827,
        "lat": 35.2272086
    },
    {
        "date": "2023-06-28",
        "event": "16TH PHILADELPHIA INTERNATIONAL! (PA)",
        "section": "1: 19 GMS 15 IMS",
        "link": "https://www.uschess.org/msa/XtblMain.php?202306289292.1",
        "pre-rating": 2411,
        "post-rating": 2407,
        "location": "PHILADELPHIA, PA 19103",
        "final_rank": 40,
        "participants": 99,
        "long": -75.1635262,
        "lat": 39.9527237
    },
    {
        "date": "2023-05-29",
        "event": "10TH CHERRY BLOSSOM CLASSIC (VA)",
        "section": "1: OPEN",
        "link": "https://www.uschess.org/msa/XtblMain.php?202305292862.1",
        "pre-rating": 2424,
        "post-rating": 2411,
        "location": "DULLES, VA 20166",
        "final_rank": 36,
        "participants": 50,
        "long": -77.4534849116,
        "lat": 38.95226625
    },
    {
        "date": "2023-04-30",
        "event": "68TH MARYLAND OPEN (MD)",
        "section": "1: CHAMPIONSHIP",
        "link": "https://www.uschess.org/msa/XtblMain.php?202304304702.1",
        "pre-rating": 2421,
        "post-rating": 2424,
        "location": "ROCKVILLE, MD 20852",
        "final_rank": 3,
        "participants": 14,
        "long": -77.1515844,
        "lat": 39.0817985
    },
    {
        "date": "2022-12-23",
        "event": "2022 SPICE CUP (MO)",
        "section": "1: OPEN",
        "link": "https://www.uschess.org/msa/XtblMain.php?202212234562.1",
        "pre-rating": 2414,
        "post-rating": 2421,
        "location": "CHESTERFIELD, MO 63017",
        "final_rank": 33,
        "participants": 77,
        "long": -90.5643258,
        "lat": 38.661953
    },
    {
        "date": "2022-08-24",
        "event": "2022 MN INTERNATIONAL CHESS FESTIVA (MN)",
        "section": "1: OPEN",
        "link": "https://www.uschess.org/msa/XtblMain.php?202208249442.1",
        "pre-rating": 2398,
        "post-rating": 2414,
        "location": "BLOOMINGTON, MN 55431",
        "final_rank": 10,
        "participants": 45,
        "long": -93.3204872,
        "lat": 44.8322405
    },
    {
        "date": "2022-08-17",
        "event": "9TH ANNUAL WASHINGTON INTERNATIONAL (MD)",
        "section": "1: CHAMPIONSHIP",
        "link": "https://www.uschess.org/msa/XtblMain.php?202208176292.1",
        "pre-rating": 2410,
        "post-rating": 2398,
        "location": "ROCKVILLE, MD 20852",
        "final_rank": 43,
        "participants": 56,
        "long": -77.1517844,
        "lat": 39.0817985
    },
    {
        "date": "2022-05-30",
        "event": "9TH CHERRY BLOSSOM CLASSIC (VA)",
        "section": "1: OPEN",
        "link": "https://www.uschess.org/msa/XtblMain.php?202205308992.1",
        "pre-rating": 2383,
        "post-rating": 2410,
        "location": "DULLES, VA 20166",
        "final_rank": 4,
        "participants": 46,
        "long": -77.4533849116,
        "lat": 38.95226625
    },
    {
        "date": "2021-12-23",
        "event": "2021 NORTH AMERICAN JUNIOR CHAMPIONSHIPS (NC)",
        "section": "1: OPEN U20",
        "link": "https://www.uschess.org/msa/XtblMain.php?202112231292.1",
        "pre-rating": 2386,
        "post-rating": 2383,
        "location": "CHARLOTTE, NC 28262",
        "final_rank": 19,
        "participants": 90,
        "long": -80.7349704969,
        "lat": 35.30649445
    },
    {
        "date": "2021-12-11",
        "event": "2021 MICHIGAN ACTION (MI)",
        "section": "1: OPEN",
        "link": "https://www.uschess.org/msa/XtblMain.php?202112116102.1",
        "pre-rating": 2390,
        "post-rating": 2386,
        "location": "ANN ARBOR, MI 48108",
        "final_rank": 4,
        "participants": 83,
        "long": -83.7484616,
        "lat": 42.2813722
    },
    {
        "date": "2021-08-21",
        "event": "2021 NORTH AMERICAN YOUTH CHAMPIONSHIPS (IL)",
        "section": "1: U18 OPEN",
        "link": "https://www.uschess.org/msa/XtblMain.php?202108212362.1",
        "pre-rating": 2412,
        "post-rating": 2390,
        "location": "CHICAGO, IL 60605",
        "final_rank": 19,
        "participants": 37,
        "long": -87.6244212,
        "lat": 41.8755616
    },
    {
        "date": "2021-07-05",
        "event": "49TH ANNUAL WORLD OPEN (PA)",
        "section": "1: OPEN",
        "link": "https://www.uschess.org/msa/XtblMain.php?202107054872.1",
        "pre-rating": 2422,
        "post-rating": 2412,
        "location": "PHILADELPHIA, PA 19103",
        "final_rank": 133,
        "participants": 196,
        "long": -75.1634262,
        "lat": 39.9527237
    },
    {
        "date": "2021-05-31",
        "event": "8TH CHERRY BLOSSOM CLASSIC (VA)",
        "section": "1: OPEN",
        "link": "https://www.uschess.org/msa/XtblMain.php?202105313122.1",
        "pre-rating": 2413,
        "post-rating": 2422,
        "location": "DULLES, VA 20166",
        "final_rank": 15,
        "participants": 58,
        "long": -77.4535849116,
        "lat": 38.95226625
    },
    {
        "date": "2021-05-23",
        "event": "2020-21 VA SCHOLASTIC CHAMPIONSHIP (VA)",
        "section": "1: K12",
        "link": "https://www.uschess.org/msa/XtblMain.php?202105230132.1",
        "pre-rating": 2408,
        "post-rating": 2413,
        "location": "DULLES, VA 20166",
        "final_rank": 1,
        "participants": 40,
        "long": -77.4532849116,
        "lat": 38.95226625
    },
    {
        "date": "2021-04-04",
        "event": "2ND COLONIAL OPEN (VA)",
        "section": "1: OPEN",
        "link": "https://www.uschess.org/msa/XtblMain.php?202104046362.1",
        "pre-rating": 2389,
        "post-rating": 2408,
        "location": "DULLES, VA 20166",
        "final_rank": 1,
        "participants": 36,
        "long": -77.4536849116,
        "lat": 38.95226625
    },
    {
        "date": "2020-12-23",
        "event": "2020 NORTH AMERICAN JUNIOR CHAMPIONSHIPS (NC)",
        "section": "1: OPEN U20",
        "link": "https://www.uschess.org/msa/XtblMain.php?202012239842.1",
        "pre-rating": 2400,
        "post-rating": 2389,
        "location": "CHARLOTTE, NC 28226",
        "final_rank": 41,
        "participants": 74,
        "long": -80.850379081,
        "lat": 35.08875325
    },
    {
        "date": "2020-08-23",
        "event": "CCCSA SUMMER 2020 GMIM NORM (NC)",
        "section": "2: IM",
        "link": "https://www.uschess.org/msa/XtblMain.php?202008242972.2",
        "pre-rating": 2390,
        "post-rating": 2400,
        "location": "CHARLOTTE, NC 28266",
        "final_rank": 4,
        "participants": 10,
        "long": -80.9457435226,
        "lat": 35.21074145
    },
    {
        "date": "2020-03-08",
        "event": "VA SCHOLASTIC & COLLEGE CHAMPIONSHIPS (VA)",
        "section": "8: K-12 CHAMPIONSHIP",
        "link": "https://www.uschess.org/msa/XtblMain.php?202003083452.8",
        "pre-rating": 2379,
        "post-rating": 2390,
        "location": "ALEXANDRIA, VA 22312",
        "final_rank": 2,
        "participants": 53,
        "long": -77.0470229,
        "lat": 38.8051095
    },
    {
        "date": "2020-01-05",
        "event": "2020 CHARLOTTE OPEN (NC)",
        "section": "1: CHAMPIONSHIP",
        "link": "https://www.uschess.org/msa/XtblMain.php?202001057322.1",
        "pre-rating": 2384,
        "post-rating": 2379,
        "location": "CHARLOTTE, NC 28226",
        "final_rank": 37,
        "participants": 70,
        "long": -80.850279081,
        "lat": 35.08875325
    },
    {
        "date": "2019-12-30",
        "event": "2019 EASTERN OPEN (DC)",
        "section": "1: OPEN",
        "link": "https://www.uschess.org/msa/XtblMain.php?201912304882.1",
        "pre-rating": 2391,
        "post-rating": 2384,
        "location": "WASHINGTON, DC 20037",
        "final_rank": 10,
        "participants": 40,
        "long": -77.0365427,
        "lat": 38.8950368
    },
    {
        "date": "2019-12-01",
        "event": "50TH ANNUAL NATIONAL CHESS CONGRESS (PA)",
        "section": "1: PREMIER",
        "link": "https://www.uschess.org/msa/XtblMain.php?201912011512.1",
        "pre-rating": 2402,
        "post-rating": 2391,
        "location": "PHILADELPHIA, PA 19103",
        "final_rank": 29,
        "participants": 83,
        "long": -75.1636262,
        "lat": 39.9527237
    },
    {
        "date": "2019-10-14",
        "event": "11TH ANNUAL WASHINGTON CONGRESS (VA)",
        "section": "1: PREMIER SECTION!",
        "link": "https://www.uschess.org/msa/XtblMain.php?201910145352.1",
        "pre-rating": 2381,
        "post-rating": 2402,
        "location": "FALLS CHURCH, VA 22043",
        "final_rank": 11,
        "participants": 85,
        "long": -77.1710914,
        "lat": 38.882334
    },
    {
        "date": "2019-09-02",
        "event": "2019 VIRGINIA CLOSED (VA)",
        "section": "3: CHAMPIONSHIP",
        "link": "https://www.uschess.org/msa/XtblMain.php?201909023472.3",
        "pre-rating": 2373,
        "post-rating": 2381,
        "location": "GLEN ALLEN, VA 23060",
        "final_rank": 3,
        "participants": 43,
        "long": -77.5063739,
        "lat": 37.665978
    },
    {
        "date": "2019-08-25",
        "event": "2019 U.S. MASTERS CHESS CHAMPIONSHIP (NC)",
        "section": "1: MASTERS",
        "link": "https://www.uschess.org/msa/XtblMain.php?201908250532.1",
        "pre-rating": 2368,
        "post-rating": 2373,
        "location": "GREENSBORO, NC 27409",
        "final_rank": 65,
        "participants": 88,
        "long": -79.9079919325,
        "lat": 36.06674195
    },
    {
        "date": "2019-08-11",
        "event": "120TH ANNUAL US OPEN - 2019 (FL)",
        "section": "1: U.S. OPEN",
        "link": "https://www.uschess.org/msa/XtblMain.php?201908114052.1",
        "pre-rating": 2355,
        "post-rating": 2368,
        "location": "ORLANDO, FL 32819",
        "final_rank": 33,
        "participants": 355,
        "long": -81.3790304,
        "lat": 28.5421109
    },
    {
        "date": "2019-08-06",
        "event": "35TH ANNUAL DENKER NATL TMT OF HS STATE CHAMPS (FL)",
        "section": "1: DENKER",
        "link": "https://www.uschess.org/msa/XtblMain.php?201908061642.1",
        "pre-rating": 2369,
        "post-rating": 2355,
        "location": "ORLANDO, FL 32819",
        "final_rank": 14,
        "participants": 48,
        "long": -81.3789304,
        "lat": 28.5421109
    },
    {
        "date": "2019-07-31",
        "event": "8TH ANNUAL WASHINGTON INTERNATIONAL (MD)",
        "section": "1: CHAMPIONSHIP",
        "link": "https://www.uschess.org/msa/XtblMain.php?201907318592.1",
        "pre-rating": 2369,
        "post-rating": 2369,
        "location": "ROCKVILLE, MD 20852",
        "final_rank": 21,
        "participants": 47,
        "long": -77.1514844,
        "lat": 39.0817985
    },
    {
        "date": "2019-07-14",
        "event": "CHERRY HILL OPEN (NJ)",
        "section": "1: OPEN",
        "link": "https://www.uschess.org/msa/XtblMain.php?201907140662.1",
        "pre-rating": 2350,
        "post-rating": 2369,
        "location": "CHERRY HILL, NJ 08002",
        "final_rank": 2,
        "participants": 26,
        "long": -75.0417589,
        "lat": 39.9284378
    },
    {
        "date": "2019-07-07",
        "event": "47TH ANNUAL WORLD OPEN (PA)",
        "section": "1: OPEN",
        "link": "https://www.uschess.org/msa/XtblMain.php?201907078302.1",
        "pre-rating": 2357,
        "post-rating": 2350,
        "location": "PHILADELPHIA, PA 19107",
        "final_rank": 77,
        "participants": 227,
        "long": -75.1633262,
        "lat": 39.9527237
    },
    {
        "date": "2019-06-29",
        "event": "ACC ACTIONPLUS JUNE 2019 (VA)",
        "section": "1: PREMIER",
        "link": "https://www.uschess.org/msa/XtblMain.php?201906294952.1",
        "pre-rating": 2344,
        "post-rating": 2357,
        "location": "ARLINGTON, VA 22202",
        "final_rank": 1,
        "participants": 23,
        "long": -77.0893094,
        "lat": 38.8769326
    },
    {
        "date": "2019-06-23",
        "event": "20TH PITTSBURGH OPEN (PA)",
        "section": "1: MAJOR",
        "link": "https://www.uschess.org/msa/XtblMain.php?201906231892.1",
        "pre-rating": 2353,
        "post-rating": 2344,
        "location": "PITTSBURGH, PA 15205",
        "final_rank": 28,
        "participants": 36,
        "long": -79.9900861,
        "lat": 40.4416941
    },
    {
        "date": "2019-06-16",
        "event": "8TH ANNUAL CONTINENTAL CLASS! (VA)",
        "section": "1: MASTERS!",
        "link": "https://www.uschess.org/msa/XtblMain.php?201906168782.1",
        "pre-rating": 2347,
        "post-rating": 2353,
        "location": "FALLS CHURCH, VA 22043",
        "final_rank": 7,
        "participants": 30,
        "long": -77.1709914,
        "lat": 38.882334
    },
    {
        "date": "2019-05-27",
        "event": "7TH CHERRY BLOSSOM CLASSIC (VA)",
        "section": "1: OPEN",
        "link": "https://www.uschess.org/msa/XtblMain.php?201905279672.1",
        "pre-rating": 2335,
        "post-rating": 2347,
        "location": "STERLING, VA 20166",
        "final_rank": 20,
        "participants": 62,
        "long": -77.4033349,
        "lat": 39.0017455
    },
    {
        "date": "2019-04-21",
        "event": "13TH ANNUAL OPEN AT FOXWOODS (CT)",
        "section": "1: OPEN",
        "link": "https://www.uschess.org/msa/XtblMain.php?201904212622.1",
        "pre-rating": 2330,
        "post-rating": 2335,
        "location": "MASHANTUCKET, CT 06339",
        "final_rank": 29,
        "participants": 88,
        "long": -71.9747539,
        "lat": 41.4644695
    },
    {
        "date": "2019-04-12",
        "event": "DCCL WINTER LEAGUE ROUND 8 (VA)",
        "section": "1: OPEN",
        "link": "https://www.uschess.org/msa/XtblMain.php?201904120402.1",
        "pre-rating": 2340,
        "post-rating": 2330,
        "location": "ARLINGTON, VA 22102",
        "final_rank": 33,
        "participants": 48,
        "long": -77.1683134,
        "lat": 38.8940005
    },
    {
        "date": "2019-03-17",
        "event": "2019 NATIONAL HIGH SCHOOL CHAMPIONS (IL)",
        "section": "1: K12",
        "link": "https://www.uschess.org/msa/XtblMain.php?201903174252.1",
        "pre-rating": 2348,
        "post-rating": 2340,
        "location": "SCHAUMBURG, IL 60173",
        "final_rank": 21,
        "participants": 323,
        "long": -88.083406,
        "lat": 42.0333608
    },
    {
        "date": "2019-03-10",
        "event": "VA SCHOLASTIC & COLLEGE CHAMPIONSHIPS (VA)",
        "section": "8: K-12 CHAMPIONSHIP",
        "link": "https://www.uschess.org/msa/XtblMain.php?201903100892.8",
        "pre-rating": 2337,
        "post-rating": 2348,
        "location": "CHARLOTTESVILLE, VA 22902",
        "final_rank": 2,
        "participants": 46,
        "long": -78.4766781,
        "lat": 38.029306
    },
    {
        "date": "2019-02-10",
        "event": "57TH ANNUAL BALTIMORE OPEN (MD)",
        "section": "1: CHAMP",
        "link": "https://www.uschess.org/msa/XtblMain.php?201902106232.1",
        "pre-rating": 2328,
        "post-rating": 2337,
        "location": "LINTHICUM HEIGHTS, MD 21090",
        "final_rank": 5,
        "participants": 25,
        "long": -76.6597094,
        "lat": 39.2039094
    },
    {
        "date": "2019-01-27",
        "event": "2019 CARDINAL OPEN (OH)",
        "section": "1: OPEN",
        "link": "https://www.uschess.org/msa/XtblMain.php?201901278242.1",
        "pre-rating": 2318,
        "post-rating": 2328,
        "location": "COLUMBUS, OH 43210",
        "final_rank": 9,
        "participants": 30,
        "long": -83.0007065,
        "lat": 39.9622601
    },
    {
        "date": "2019-01-21",
        "event": "11TH ANNUAL CHESAPEAKE OPEN (MD)",
        "section": "1: CHAMP",
        "link": "https://www.uschess.org/msa/XtblMain.php?201901214532.1",
        "pre-rating": 2333,
        "post-rating": 2318,
        "location": "ROCKVILLE, MD 20852",
        "final_rank": 21,
        "participants": 28,
        "long": -77.1518844,
        "lat": 39.0817985
    },
    {
        "date": "2019-01-06",
        "event": "JANUARYPREMIER (NY)",
        "section": "2: PREMIERFIDEOPENJAN",
        "link": "https://www.uschess.org/msa/XtblMain.php?201901066512.2",
        "pre-rating": 2330,
        "post-rating": 2333,
        "location": "NEW YORK, NY 10011",
        "final_rank": 5,
        "participants": 14,
        "long": -74.0060152,
        "lat": 40.7127281
    },
    {
        "date": "2018-12-30",
        "event": "EASTERN OPEN 2018 (VA)",
        "section": "1: OPEN",
        "link": "https://www.uschess.org/msa/XtblMain.php?201812303822.1",
        "pre-rating": 2330,
        "post-rating": 2330,
        "location": "ARLINGTON, VA 22203",
        "final_rank": 6,
        "participants": 50,
        "long": -77.0892094,
        "lat": 38.8769326
    },
    {
        "date": "2018-12-09",
        "event": "1ST ANNUAL OLD LINE OPEN (MD)",
        "section": "1: CHAMPIONSHIP",
        "link": "https://www.uschess.org/msa/XtblMain.php?201812093992.1",
        "pre-rating": 2328,
        "post-rating": 2330,
        "location": "ROCKVILLE, MD 20852",
        "final_rank": 3,
        "participants": 25,
        "long": -77.1513844,
        "lat": 39.0817985
    },
    {
        "date": "2018-09-03",
        "event": "2018 VIRGINIA CLOSED (VA)",
        "section": "1: CHAMPIONSHIP-LONG",
        "link": "https://www.uschess.org/msa/XtblMain.php?201809036292.1",
        "pre-rating": 2329,
        "post-rating": 2328,
        "location": "GLEN ALLEN, VA 23059",
        "final_rank": 9,
        "participants": 41,
        "long": -77.506374,
        "lat": 37.6659781
    },
    {
        "date": "2018-08-05",
        "event": "17TH MANHATTAN OPEN (NY)",
        "section": "1: MAJOR",
        "link": "https://www.uschess.org/msa/XtblMain.php?201808053772.1",
        "pre-rating": 2310,
        "post-rating": 2329,
        "location": "NEW YORK, NY 10019",
        "final_rank": 18,
        "participants": 71,
        "long": -74.0059152,
        "lat": 40.7127281
    },
    {
        "date": "2018-07-22",
        "event": "8TH ANNUAL POTOMAC OPEN (MD)",
        "section": "1: CHAMPIONSHIP",
        "link": "https://www.uschess.org/msa/XtblMain.php?201807227332.1",
        "pre-rating": 2330,
        "post-rating": 2310,
        "location": "ROCKVILLE, MD 20852",
        "final_rank": 10,
        "participants": 12,
        "long": -77.1519844,
        "lat": 39.0817985
    },
    {
        "date": "2018-07-02",
        "event": "12TH ANNUAL PHILADELPHIA INT'L (PA)",
        "section": "1: PREMIER!",
        "link": "https://www.uschess.org/msa/XtblMain.php?201807028542.1",
        "pre-rating": 2345,
        "post-rating": 2330,
        "location": "PHILADELPHIA, PA 19107",
        "final_rank": 79,
        "participants": 116,
        "long": -75.1637262,
        "lat": 39.9527237
    },
    {
        "date": "2018-06-17",
        "event": "7TH ANNUAL CONTINENTAL CLASS! (VA)",
        "section": "1: MASTERS!",
        "link": "https://www.uschess.org/msa/XtblMain.php?201806170572.1",
        "pre-rating": 2353,
        "post-rating": 2345,
        "location": "FALLS CHURCH, VA 22043",
        "final_rank": 9,
        "participants": 27,
        "long": -77.1711914,
        "lat": 38.882334
    },
    {
        "date": "2018-06-03",
        "event": "LEON SHULMAN CUP (NJ)",
        "section": "1: OPEN",
        "link": "https://www.uschess.org/msa/XtblMain.php?201806034222.1",
        "pre-rating": 2342,
        "post-rating": 2353,
        "location": "MARLTON, NJ 08053",
        "final_rank": 2,
        "participants": 20,
        "long": -74.9218325,
        "lat": 39.8912248
    },
    {
        "date": "2018-05-22",
        "event": "2ND NORTH EASTERN MASTERS RRS (VA)",
        "section": "2: IM",
        "link": "https://www.uschess.org/msa/XtblMain.php?201805228222.2",
        "pre-rating": 2331,
        "post-rating": 2342,
        "location": "HERNDON, VA 20171",
        "final_rank": 6,
        "participants": 10,
        "long": -77.3852557,
        "lat": 38.9528369
    },
    {
        "date": "2018-05-06",
        "event": "64TH ANNUAL MARYLAND OPEN (MD)",
        "section": "1: CHAMP",
        "link": "https://www.uschess.org/msa/XtblMain.php?201805060802.1",
        "pre-rating": 2308,
        "post-rating": 2331,
        "location": "ROCKVILLE, MD 21204",
        "final_rank": 2,
        "participants": 33,
        "long": -77.1512844,
        "lat": 39.0817985
    },
    {
        "date": "2018-04-29",
        "event": "2018 NATIONAL HIGH SCHOOL CHAMPIONS (OH)",
        "section": "1: K12",
        "link": "https://www.uschess.org/msa/XtblMain.php?201804297032.1",
        "pre-rating": 2322,
        "post-rating": 2308,
        "location": "COLUMBUS, OH 43215",
        "final_rank": 20,
        "participants": 280,
        "long": -83.0006065,
        "lat": 39.9622601
    },
    {
        "date": "2018-04-15",
        "event": "APRIL CHESSANITY SWISS (NY)",
        "section": "1: APRIL MASTERS",
        "link": "https://www.uschess.org/msa/XtblMain.php?201804150212.1",
        "pre-rating": 2309,
        "post-rating": 2322,
        "location": "SYOSSET, NY 11791",
        "final_rank": 4,
        "participants": 6,
        "long": -73.502068,
        "lat": 40.8262101
    },
    {
        "date": "2018-04-01",
        "event": "SPRING 2018 CCCSA GM/IM/JUNIOR INVITATIONAL (NC)",
        "section": "2: IM",
        "link": "https://www.uschess.org/msa/XtblMain.php?201804013962.2",
        "pre-rating": 2300,
        "post-rating": 2309,
        "location": "CHARLOTTE, NC 28203",
        "final_rank": 8,
        "participants": 10,
        "long": -80.8429827,
        "lat": 35.2272086
    },
    {
        "date": "2018-03-04",
        "event": "VA SCHOLASTIC & COLLEGE CHAMPIONSHIPS (VA)",
        "section": "4: K-12",
        "link": "https://www.uschess.org/msa/XtblMain.php?201803040172.4",
        "pre-rating": 2295,
        "post-rating": 2300,
        "location": "ROANOKE, VA 24017",
        "final_rank": 5,
        "participants": 75,
        "long": -79.9414313,
        "lat": 37.270973
    },
    {
        "date": "2018-02-11",
        "event": "56TH ANNUAL BALTIMORE OPEN (MD)",
        "section": "1: CHAMPIONSHIP",
        "link": "https://www.uschess.org/msa/XtblMain.php?201802119952.1",
        "pre-rating": 2285,
        "post-rating": 2295,
        "location": "LINTHICUM HEIGHTS, MD 21090",
        "final_rank": 7,
        "participants": 32,
        "long": -76.6596094,
        "lat": 39.2039094
    },
    {
        "date": "2018-01-28",
        "event": "2018 CARDINAL OPEN (OH)",
        "section": "1: OPEN",
        "link": "https://www.uschess.org/msa/XtblMain.php?201801282912.1",
        "pre-rating": 2290,
        "post-rating": 2285,
        "location": "COLUMBUS, OH 43219",
        "final_rank": 8,
        "participants": 36,
        "long": -83.0008065,
        "lat": 39.9622601
    },
    {
        "date": "2018-01-15",
        "event": "10TH ANNUAL CHESAPEAKE OPEN (MD)",
        "section": "1: CHAMPIONSHIP",
        "link": "https://www.uschess.org/msa/XtblMain.php?201801156532.1",
        "pre-rating": 2288,
        "post-rating": 2290,
        "location": "ROCKVILLE, MD 20852",
        "final_rank": 10,
        "participants": 37,
        "long": -77.1520844,
        "lat": 39.0817985
    },
    {
        "date": "2017-12-30",
        "event": "44TH ANNUAL EASTERN OPEN (VA)",
        "section": "1: OPEN",
        "link": "https://www.uschess.org/msa/XtblMain.php?201712309782.1",
        "pre-rating": 2268,
        "post-rating": 2288,
        "location": "FALLS CHURCH, VA 22043",
        "final_rank": 4,
        "participants": 45,
        "long": -77.1708914,
        "lat": 38.882334
    },
    {
        "date": "2017-12-10",
        "event": "2017 NATIONAL K-12 GRADE CHAMPIONSHIPS (FL)",
        "section": "4: 9",
        "link": "https://www.uschess.org/msa/XtblMain.php?201712102102.4",
        "pre-rating": 2276,
        "post-rating": 2268,
        "location": "ORLANDO, FL 32830",
        "final_rank": 4,
        "participants": 101,
        "long": -81.4679276543,
        "lat": 28.4708662
    },
    {
        "date": "2017-09-10",
        "event": "NORTHERN VA CHESSLEAGUE SEASON 4 (VA)",
        "section": "1: DIVISION A RD1",
        "link": "https://www.uschess.org/msa/XtblMain.php?201709109022.1",
        "pre-rating": 2273,
        "post-rating": 2276,
        "location": "DULLES, VA 20166",
        "final_rank": 3,
        "participants": 16,
        "long": -77.4531849116,
        "lat": 38.95226625
    },
    {
        "date": "2017-09-04",
        "event": "2017 VIRGINIA CLOSED (VA)",
        "section": "1: OPEN",
        "link": "https://www.uschess.org/msa/XtblMain.php?201709046942.1",
        "pre-rating": 2260,
        "post-rating": 2273,
        "location": "GLEN ALLEN, VA 23059",
        "final_rank": 4,
        "participants": 39,
        "long": -77.506274,
        "lat": 37.6659781
    },
    {
        "date": "2017-08-06",
        "event": "118TH ANNUAL US OPEN - 2017 (VA)",
        "section": "1: U.S. OPEN",
        "link": "https://www.uschess.org/msa/XtblMain.php?201708064872.1",
        "pre-rating": 2255,
        "post-rating": 2260,
        "location": "NORFOLK, VA 23510",
        "final_rank": 31,
        "participants": 396,
        "long": -76.2863999,
        "lat": 36.8448348
    },
    {
        "date": "2017-08-01",
        "event": "7TH ANNUAL BARBER NATL TMT OF K-8 STATE CHAMPS (VA)",
        "section": "1: BARBER",
        "link": "https://www.uschess.org/msa/XtblMain.php?201708012762.1",
        "pre-rating": 2273,
        "post-rating": 2255,
        "location": "NORFOLK, VA 23510",
        "final_rank": 9,
        "participants": 48,
        "long": -76.2862999,
        "lat": 36.8448348
    },
    {
        "date": "2017-07-04",
        "event": "45TH ANNUAL WORLD OPEN (PA)",
        "section": "1: OPEN",
        "link": "https://www.uschess.org/msa/XtblMain.php?201707041032.1",
        "pre-rating": 2260,
        "post-rating": 2273,
        "location": "PHILADELPHIA, PA 19107",
        "final_rank": 79,
        "participants": 216,
        "long": -75.1632262,
        "lat": 39.9527237
    },
    {
        "date": "2017-06-29",
        "event": "11TH PHILADELPHIA INTERNATIONAL! (PA)",
        "section": "1: 2 GM NORMS!",
        "link": "https://www.uschess.org/msa/XtblMain.php?201706298722.1",
        "pre-rating": 2234,
        "post-rating": 2260,
        "location": "PHILADELPHIA, PA 19107",
        "final_rank": 32,
        "participants": 81,
        "long": -75.1638262,
        "lat": 39.9527237
    },
    {
        "date": "2017-06-18",
        "event": "6TH ANNUAL CONTINENTAL CLASS CHAMP. (VA)",
        "section": "1: MASTERS",
        "link": "https://www.uschess.org/msa/XtblMain.php?201706183712.1",
        "pre-rating": 2244,
        "post-rating": 2234,
        "location": "FALLS CHURCH, VA 22043",
        "final_rank": 13,
        "participants": 19,
        "long": -77.1712914,
        "lat": 38.882334
    },
    {
        "date": "2017-06-11",
        "event": "2017 CAROLINAS CLASSIC (NC)",
        "section": "1: OPEN",
        "link": "https://www.uschess.org/msa/XtblMain.php?201706110972.1",
        "pre-rating": 2250,
        "post-rating": 2244,
        "location": "CHARLOTTE, NC 28262",
        "final_rank": 10,
        "participants": 29,
        "long": -80.7348704969,
        "lat": 35.30649445
    },
    {
        "date": "2017-05-29",
        "event": "5TH CHERRY BLOSSOM CLASSIC (VA)",
        "section": "1: OPEN",
        "link": "https://www.uschess.org/msa/XtblMain.php?201705295502.1",
        "pre-rating": 2239,
        "post-rating": 2250,
        "location": "HERNDON, VA 20171",
        "final_rank": 19,
        "participants": 33,
        "long": -77.3851557,
        "lat": 38.9528369
    },
    {
        "date": "2017-05-20",
        "event": "2017 MARYLAND MAY ACTION (MD)",
        "section": "1: OPEN",
        "link": "https://www.uschess.org/msa/XtblMain.php?201705201772.1",
        "pre-rating": 2264,
        "post-rating": 2239,
        "location": "ROCKVILLE, MD 20852",
        "final_rank": 21,
        "participants": 21,
        "long": -77.1511844,
        "lat": 39.0817985
    },
    {
        "date": "2017-04-16",
        "event": "11TH ANNUAL PHILADELPHIA OPEN (PA)",
        "section": "1: OPEN",
        "link": "https://www.uschess.org/msa/XtblMain.php?201704167042.1",
        "pre-rating": 2251,
        "post-rating": 2264,
        "location": "PHILADELPHIA, PA 19107",
        "final_rank": 45,
        "participants": 91,
        "long": -75.1631262,
        "lat": 39.9527237
    },
    {
        "date": "2017-04-08",
        "event": "2017 MARYLAND APRIL ACTION (MD)",
        "section": "1: OPEN",
        "link": "https://www.uschess.org/msa/XtblMain.php?201704083712.1",
        "pre-rating": 2248,
        "post-rating": 2251,
        "location": "ROCKVILLE, MD 20850",
        "final_rank": 6,
        "participants": 38,
        "long": -77.1521844,
        "lat": 39.0817985
    },
    {
        "date": "2017-03-26",
        "event": "50TH VIRGINIA OPEN (VA)",
        "section": "1: OPEN",
        "link": "https://www.uschess.org/msa/XtblMain.php?201703267392.1",
        "pre-rating": 2250,
        "post-rating": 2248,
        "location": "STERLING, VA 20166",
        "final_rank": 8,
        "participants": 42,
        "long": -77.4032349,
        "lat": 39.0017455
    },
    {
        "date": "2017-03-18",
        "event": "ACC ACTION PLUS MAR 18 2017 (VA)",
        "section": "1: PREMIERE",
        "link": "https://www.uschess.org/msa/XtblMain.php?201703182962.1",
        "pre-rating": 2255,
        "post-rating": 2250,
        "location": "ARLINGTON, VA 22203",
        "final_rank": 2,
        "participants": 14,
        "long": -77.0894094,
        "lat": 38.8769326
    },
    {
        "date": "2017-03-12",
        "event": "2017 VA SCHOLASTIC & COLLEGE CHAMPIONSHIPS (VA)",
        "section": "3: K-8",
        "link": "https://www.uschess.org/msa/XtblMain.php?201703120642.3",
        "pre-rating": 2239,
        "post-rating": 2255,
        "location": "VIRGINIA BEACH, VA 23462",
        "final_rank": 1,
        "participants": 114,
        "long": -76.08829768,
        "lat": 36.7662709
    },
    {
        "date": "2017-02-18",
        "event": "PARK HGTS AVE FEB OPEN (MD)",
        "section": "1: FEB OPEN",
        "link": "https://www.uschess.org/msa/XtblMain.php?201702188472.1",
        "pre-rating": 2245,
        "post-rating": 2239,
        "location": "BALTIMORE, MD 21218",
        "final_rank": 2,
        "participants": 24,
        "long": -76.610759,
        "lat": 39.2908816
    },
    {
        "date": "2016-10-02",
        "event": "NORTHERN VA CHESSLEAGUE SEASON 2 (VA)",
        "section": "1: DIVISION A RD3",
        "link": "https://www.uschess.org/msa/XtblMain.php?201610029142.1",
        "pre-rating": 2253,
        "post-rating": 2245,
        "location": "STERLING, VA 20166",
        "final_rank": 16,
        "participants": 22,
        "long": -77.4034349,
        "lat": 39.0017455
    },
    {
        "date": "2016-08-29",
        "event": "2016 U.S. MASTERS CHESS CHAMPIONSHIP (NC)",
        "section": "1: MASTERS",
        "link": "https://www.uschess.org/msa/XtblMain.php?201608295172.1",
        "pre-rating": 2244,
        "post-rating": 2253,
        "location": "GREENSBORO, NC 27409",
        "final_rank": 60,
        "participants": 83,
        "long": -79.9078919325,
        "lat": 36.06674195
    },
    {
        "date": "2016-08-21",
        "event": "NORTHERN VA CHESSLEAGUE SEASON 2 (VA)",
        "section": "1: DIVISION A RD1",
        "link": "https://www.uschess.org/msa/XtblMain.php?201608211122.1",
        "pre-rating": 2240,
        "post-rating": 2244,
        "location": "STERLING, VA 20166",
        "final_rank": 3,
        "participants": 24,
        "long": -77.4031349,
        "lat": 39.0017455
    },
    {
        "date": "2016-08-17",
        "event": "5TH ANNUAL WASHINGTON INTERNATIONAL (MD)",
        "section": "1: A",
        "link": "https://www.uschess.org/msa/XtblMain.php?201608178582.1",
        "pre-rating": 2220,
        "post-rating": 2240,
        "location": "ROCKVILLE, MD 20850",
        "final_rank": 47,
        "participants": 67,
        "long": -77.1510844,
        "lat": 39.0817985
    },
    {
        "date": "2016-07-04",
        "event": "44TH ANNUAL WORLD OPEN (PA)",
        "section": "1: OPEN",
        "link": "https://www.uschess.org/msa/XtblMain.php?201607041362.1",
        "pre-rating": 2231,
        "post-rating": 2220,
        "location": "PHILADELPHIA, PA 19107",
        "final_rank": 204,
        "participants": 222,
        "long": -75.1639262,
        "lat": 39.9527237
    },
    {
        "date": "2016-05-30",
        "event": "4TH CHERRY BLOSSOM CLASSIC (VA)",
        "section": "1: OPEN",
        "link": "https://www.uschess.org/msa/XtblMain.php?201605306872.1",
        "pre-rating": 2225,
        "post-rating": 2231,
        "location": "STERLING, VA 20166",
        "final_rank": 10,
        "participants": 34,
        "long": -77.4035349,
        "lat": 39.0017455
    },
    {
        "date": "2016-05-01",
        "event": "62ND MARYLAND OPEN (MD)",
        "section": "1: CHAMP",
        "link": "https://www.uschess.org/msa/XtblMain.php?201605013262.1",
        "pre-rating": 2239,
        "post-rating": 2225,
        "location": "ROCKVILLE, MD 20850",
        "final_rank": 24,
        "participants": 26,
        "long": -77.1522844,
        "lat": 39.0817985
    },
    {
        "date": "2016-04-10",
        "event": "1ST NORTHERN VA CHESS LEAGUE RD3 (VA)",
        "section": "1: OPENRD3",
        "link": "https://www.uschess.org/msa/XtblMain.php?201604103322.1",
        "pre-rating": 2246,
        "post-rating": 2239,
        "location": "STERLING, VA 20166",
        "final_rank": 16,
        "participants": 24,
        "long": -77.4030349,
        "lat": 39.0017455
    },
    {
        "date": "2016-03-27",
        "event": "10TH ANNUAL PHILADELPHIA OPEN (PA)",
        "section": "1: OPEN",
        "link": "https://www.uschess.org/msa/XtblMain.php?201603276312.1",
        "pre-rating": 2236,
        "post-rating": 2246,
        "location": "PHILADELPHIA, PA 19103",
        "final_rank": 47,
        "participants": 87,
        "long": -75.1630262,
        "lat": 39.9527237
    },
    {
        "date": "2016-03-13",
        "event": "1ST NORTHERN VA CHESS LEAGUE RD2 (VA)",
        "section": "1: OPENRD2",
        "link": "https://www.uschess.org/msa/XtblMain.php?201603139422.1",
        "pre-rating": 2242,
        "post-rating": 2236,
        "location": "STERLING, VA 20166",
        "final_rank": 16,
        "participants": 24,
        "long": -77.4036349,
        "lat": 39.0017455
    },
    {
        "date": "2016-03-12",
        "event": "MCAMARCHACTION2016 (MD)",
        "section": "1: OPEN",
        "link": "https://www.uschess.org/msa/XtblMain.php?201603128572.1",
        "pre-rating": 2237,
        "post-rating": 2242,
        "location": "ROCKVILLE, MD 20850",
        "final_rank": 3,
        "participants": 26,
        "long": -77.1509844,
        "lat": 39.0817985
    },
    {
        "date": "2016-03-06",
        "event": "VIRGINIA SCHOLASTIC AND COLLEGE CHAMPIONSHIPS (VA)",
        "section": "3: K-8",
        "link": "https://www.uschess.org/msa/XtblMain.php?201603066132.3",
        "pre-rating": 2252,
        "post-rating": 2237,
        "location": "ASHBURN, VA 20148",
        "final_rank": 89,
        "participants": 128,
        "long": -77.4911968,
        "lat": 39.0049709
    },
    {
        "date": "2016-02-28",
        "event": "GEORGE WASHINGTON OPEN (VA)",
        "section": "1: OPEN",
        "link": "https://www.uschess.org/msa/XtblMain.php?201602282022.1",
        "pre-rating": 2259,
        "post-rating": 2252,
        "location": "HERNDON, VA 20171",
        "final_rank": 20,
        "participants": 33,
        "long": -77.3853557,
        "lat": 38.9528369
    },
    {
        "date": "2016-02-13",
        "event": "ACC ACTION PLUS FEB13, 2016 (VA)",
        "section": "1: PREMIERE",
        "link": "https://www.uschess.org/msa/XtblMain.php?201602133242.1",
        "pre-rating": 2257,
        "post-rating": 2259,
        "location": "ARLINGTON, VA 22203",
        "final_rank": 3,
        "participants": 15,
        "long": -77.0891094,
        "lat": 38.8769326
    },
    {
        "date": "2016-01-31",
        "event": "54TH ANNUAL BALTIMORE OPEN (MD)",
        "section": "1: CHAMP",
        "link": "https://www.uschess.org/msa/XtblMain.php?201601317142.1",
        "pre-rating": 2205,
        "post-rating": 2257,
        "location": "LINTHICUM HEIGHTS , MD 21090",
        "final_rank": 6,
        "participants": 28,
        "long": -76.6598094,
        "lat": 39.2039094
    },
    {
        "date": "2016-01-18",
        "event": "8TH ANNUAL CHESAPEAKE OPEN (MD)",
        "section": "1: CHAMPION",
        "link": "https://www.uschess.org/msa/XtblMain.php?201601180752.1",
        "pre-rating": 2191,
        "post-rating": 2205,
        "location": "ROCKVILLE, MD 20852",
        "final_rank": 12,
        "participants": 33,
        "long": -77.1523844,
        "lat": 39.0817985
    },
    {
        "date": "2015-12-29",
        "event": "42ND ANNUAL EASTERN OPEN (MD)",
        "section": "1: OPEN",
        "link": "https://www.uschess.org/msa/XtblMain.php?201512292112.1",
        "pre-rating": 2216,
        "post-rating": 2191,
        "location": "BETHESDA, MD 20814",
        "final_rank": 36,
        "participants": 36,
        "long": -77.0942447,
        "lat": 38.9846816
    },
    {
        "date": "2015-12-19",
        "event": "ACC ACTION PLUS DECEMBER 19, 2015 (VA)",
        "section": "1: PREMIERE",
        "link": "https://www.uschess.org/msa/XtblMain.php?201512198082.1",
        "pre-rating": 2222,
        "post-rating": 2216,
        "location": "ARLINGTON, VA 22203",
        "final_rank": 5,
        "participants": 25,
        "long": -77.0895094,
        "lat": 38.8769326
    },
    {
        "date": "2015-12-12",
        "event": "MARYLAND DECEMBER ACTION (MD)",
        "section": "1: OPEN",
        "link": "https://www.uschess.org/msa/XtblMain.php?201512125192.1",
        "pre-rating": 2203,
        "post-rating": 2222,
        "location": "ROCKVILLE, MD 20850",
        "final_rank": 8,
        "participants": 40,
        "long": -77.1508844,
        "lat": 39.0817985
    },
    {
        "date": "2015-11-29",
        "event": "46TH ANNUAL NATIONAL CHESS CONGRESS (PA)",
        "section": "1: PREMIER",
        "link": "https://www.uschess.org/msa/XtblMain.php?201511297402.1",
        "pre-rating": 2196,
        "post-rating": 2203,
        "location": "PHILADELPHIA, PA 19107",
        "final_rank": 51,
        "participants": 76,
        "long": -75.1640262,
        "lat": 39.9527237
    },
    {
        "date": "2015-11-21",
        "event": "ACC ACTION PLUS NOVEMBER 21, 2015 (VA)",
        "section": "1: PREMIERE",
        "link": "https://www.uschess.org/msa/XtblMain.php?201511214302.1",
        "pre-rating": 2194,
        "post-rating": 2196,
        "location": "ARLINGTON, VA 22203",
        "final_rank": 5,
        "participants": 17,
        "long": -77.0890094,
        "lat": 38.8769326
    },
    {
        "date": "2015-11-14",
        "event": "MARYLAND NOVEMBER ACTION (MD)",
        "section": "1: OPEN",
        "link": "https://www.uschess.org/msa/XtblMain.php?201511140122.1",
        "pre-rating": 2161,
        "post-rating": 2194,
        "location": "ROCKVILLE, MD 20850",
        "final_rank": 2,
        "participants": 39,
        "long": -77.1524844,
        "lat": 39.0817985
    },
    {
        "date": "2015-10-12",
        "event": "2ND WASHINGTON CHESS CONGRESS (VA)",
        "section": "1: PREMIER!",
        "link": "https://www.uschess.org/msa/XtblMain.php?201510125502.1",
        "pre-rating": 2153,
        "post-rating": 2161,
        "location": "ARLINGTON, VA 22202",
        "final_rank": 23,
        "participants": 47,
        "long": -77.0896094,
        "lat": 38.8769326
    },
    {
        "date": "2015-09-19",
        "event": "ACC ACTION PLUS SEPT. 19 2015 (VA)",
        "section": "1: PREMIER",
        "link": "https://www.uschess.org/msa/XtblMain.php?201509195362.1",
        "pre-rating": 2155,
        "post-rating": 2153,
        "location": "ARLINGTON, VA 22203",
        "final_rank": 7,
        "participants": 24,
        "long": -77.0889094,
        "lat": 38.8769326
    },
    {
        "date": "2015-09-11",
        "event": "DCCL SUMMER LEAGUE 2 (DC)",
        "section": "1: OPEN",
        "link": "https://www.uschess.org/msa/XtblMain.php?201509114182.1",
        "pre-rating": 2162,
        "post-rating": 2155,
        "location": "WASHINGTON, DC 20005",
        "final_rank": 57,
        "participants": 66,
        "long": -77.0364427,
        "lat": 38.8950368
    },
    {
        "date": "2015-09-07",
        "event": "2015 VA CLOSED (VA)",
        "section": "3: OPEN-MERGED",
        "link": "https://www.uschess.org/msa/XtblMain.php?201509070812.3",
        "pre-rating": 2169,
        "post-rating": 2162,
        "location": "HERNDON, VA 20171",
        "final_rank": 13,
        "participants": 47,
        "long": -77.3850557,
        "lat": 38.9528369
    },
    {
        "date": "2015-08-30",
        "event": "47TH ANNUAL ATLANTIC OPEN (DC)",
        "section": "1: OPEN SECTION!",
        "link": "https://www.uschess.org/msa/XtblMain.php?201508307792.1",
        "pre-rating": 2184,
        "post-rating": 2169,
        "location": "WASHINGTON, DC 20005",
        "final_rank": 24,
        "participants": 37,
        "long": -77.0366427,
        "lat": 38.8950368
    },
    {
        "date": "2015-08-15",
        "event": "ACC ACTION PLUS AUG 15, 2015 (VA)",
        "section": "1: PREMIER",
        "link": "https://www.uschess.org/msa/XtblMain.php?201508151222.1",
        "pre-rating": 2160,
        "post-rating": 2184,
        "location": "ARLINGTON, VA 22203",
        "final_rank": 2,
        "participants": 24,
        "long": -77.0897094,
        "lat": 38.8769326
    },
    {
        "date": "2015-08-02",
        "event": "5TH ANNUAL POTOMAC OPEN (MD)",
        "section": "1: CHAMP",
        "link": "https://www.uschess.org/msa/XtblMain.php?201508026902.1",
        "pre-rating": 2139,
        "post-rating": 2160,
        "location": "ROCKVILLE, MD 20852",
        "final_rank": 10,
        "participants": 26,
        "long": -77.1507844,
        "lat": 39.0817985
    },
    {
        "date": "2015-07-24",
        "event": "DCCL SUMMER LEAGUE (DC)",
        "section": "1: OPEN",
        "link": "https://www.uschess.org/msa/XtblMain.php?201507242412.1",
        "pre-rating": 2144,
        "post-rating": 2139,
        "location": "WASHINGTON, DC 20004",
        "final_rank": 55,
        "participants": 73,
        "long": -77.0363427,
        "lat": 38.8950368
    },
    {
        "date": "2015-07-18",
        "event": "ACC ACTION PLUS JULY 18, 2015 (VA)",
        "section": "1: PREMIER",
        "link": "https://www.uschess.org/msa/XtblMain.php?201507180242.1",
        "pre-rating": 2150,
        "post-rating": 2144,
        "location": "ARLINGTON, VA 22203",
        "final_rank": 6,
        "participants": 27,
        "long": -77.0888094,
        "lat": 38.8769326
    },
    {
        "date": "2015-07-11",
        "event": "1ST SATURDAY QUAD (PA)",
        "section": "1: QUAD 1",
        "link": "https://www.uschess.org/msa/XtblMain.php?201507117432.1",
        "pre-rating": 2140,
        "post-rating": 2150,
        "location": "WEST CHESTER, PA 19382",
        "final_rank": 2,
        "participants": 4,
        "long": -75.6059638,
        "lat": 39.9597213
    },
    {
        "date": "2015-06-20",
        "event": "ACC ACTION PLUS JUNE 20, 2015 (VA)",
        "section": "1: PREMIER",
        "link": "https://www.uschess.org/msa/XtblMain.php?201506209892.1",
        "pre-rating": 2134,
        "post-rating": 2140,
        "location": "ARLINGTON, VA 22203",
        "final_rank": 4,
        "participants": 23,
        "long": -77.0898094,
        "lat": 38.8769326
    },
    {
        "date": "2015-05-30",
        "event": "ACC ACTION PLUS MAY 30, 2015 (VA)",
        "section": "1: PREMIER",
        "link": "https://www.uschess.org/msa/XtblMain.php?201505301642.1",
        "pre-rating": 2135,
        "post-rating": 2134,
        "location": "ARLINGTON, VA 22203",
        "final_rank": 5,
        "participants": 24,
        "long": -77.0887094,
        "lat": 38.8769326
    },
    {
        "date": "2015-05-25",
        "event": "3RD CHERRY BLOSSOM CLASSIC (VA)",
        "section": "2: UNDER 2200",
        "link": "https://www.uschess.org/msa/XtblMain.php?201505259802.2",
        "pre-rating": 2080,
        "post-rating": 2135,
        "location": "STERLING, VA 20166",
        "final_rank": 2,
        "participants": 34,
        "long": -77.4029349,
        "lat": 39.0017455
    },
    {
        "date": "2015-05-17",
        "event": "FELLS POINT WEEKEND #241 (MD)",
        "section": "1: 05-16-15",
        "link": "https://www.uschess.org/msa/XtblMain.php?201505176882.1",
        "pre-rating": 2104,
        "post-rating": 2080,
        "location": "BATIMORE, MD 21231",
        "final_rank": 12,
        "participants": 18,
        "long": -76.609383,
        "lat": 39.299236
    },
    {
        "date": "2015-05-03",
        "event": "61ST MARYLAND OPEN (MD)",
        "section": "1: CHAMP",
        "link": "https://www.uschess.org/msa/XtblMain.php?201505031732.1",
        "pre-rating": 2109,
        "post-rating": 2104,
        "location": "ROCKVILLE, MD 20852",
        "final_rank": 23,
        "participants": 32,
        "long": -77.1525844,
        "lat": 39.0817985
    },
    {
        "date": "2015-04-25",
        "event": "ACC ACTION PLUS APRIL 25 2015 (VA)",
        "section": "1: PREMIER",
        "link": "https://www.uschess.org/msa/XtblMain.php?201504258142.1",
        "pre-rating": 2103,
        "post-rating": 2109,
        "location": "ARLINGTON, VA 22203",
        "final_rank": 5,
        "participants": 21,
        "long": -77.0899094,
        "lat": 38.8769326
    },
    {
        "date": "2015-04-19",
        "event": "FELLS POINT WEEKEND #237 (MD)",
        "section": "1: 04-18-15",
        "link": "https://www.uschess.org/msa/XtblMain.php?201504196102.1",
        "pre-rating": 2107,
        "post-rating": 2103,
        "location": "BATIMORE, MD 21231",
        "final_rank": 2,
        "participants": 18,
        "long": -76.609283,
        "lat": 39.299236
    },
    {
        "date": "2015-03-29",
        "event": "13TH SOUTHERN CLASS CHAMPIONSHIPS (FL)",
        "section": "2: EXPERTS",
        "link": "https://www.uschess.org/msa/XtblMain.php?201503297762.2",
        "pre-rating": 2091,
        "post-rating": 2107,
        "location": "ORLANDO, FL 32819",
        "final_rank": 3,
        "participants": 18,
        "long": -81.3791304,
        "lat": 28.5421109
    },
    {
        "date": "2015-03-22",
        "event": "47TH VA OPEN-2015 (VA)",
        "section": "1: OPEN",
        "link": "https://www.uschess.org/msa/XtblMain.php?201503224682.1",
        "pre-rating": 2091,
        "post-rating": 2091,
        "location": "DULLES, VA 20166",
        "final_rank": 9,
        "participants": 58,
        "long": -77.4537849116,
        "lat": 38.95226625
    },
    {
        "date": "2015-03-15",
        "event": "VA SCHOLASTIC & COLLEGIATE CHAMPIONSHIPS (VA)",
        "section": "3: K-8",
        "link": "https://www.uschess.org/msa/XtblMain.php?201503152022.3",
        "pre-rating": 2107,
        "post-rating": 2091,
        "location": "CHARLOTTESVILLE, VA 22902",
        "final_rank": 9,
        "participants": 116,
        "long": -78.4765781,
        "lat": 38.029306
    },
    {
        "date": "2015-02-20",
        "event": "DCCLW14R5 (DC)",
        "section": "1: OPEN",
        "link": "https://www.uschess.org/msa/XtblMain.php?201502278662.1",
        "pre-rating": 2115,
        "post-rating": 2107,
        "location": "WASHINGTON, DC 20005",
        "final_rank": 34,
        "participants": 48,
        "long": -77.0367427,
        "lat": 38.8950368
    },
    {
        "date": "2015-01-23",
        "event": "DCCLW14R4 (DC)",
        "section": "1: OPEN",
        "link": "https://www.uschess.org/msa/XtblMain.php?201501233742.1",
        "pre-rating": 2112,
        "post-rating": 2115,
        "location": "WASHINGTON, DC 20005",
        "final_rank": 16,
        "participants": 34,
        "long": -77.0362427,
        "lat": 38.8950368
    },
    {
        "date": "2015-01-19",
        "event": "47TH ANNUAL LIBERTY BELL OPEN (PA)",
        "section": "1: OPEN!",
        "link": "https://www.uschess.org/msa/XtblMain.php?201501199852.1",
        "pre-rating": 2099,
        "post-rating": 2112,
        "location": "PHILADELPHIA, PA 19103",
        "final_rank": 38,
        "participants": 67,
        "long": -75.1629262,
        "lat": 39.9527237
    },
    {
        "date": "2015-01-04",
        "event": "CAC JAN 2015 FIDE OPEN (VA)",
        "section": "1: OPEN",
        "link": "https://www.uschess.org/msa/XtblMain.php?201501044382.1",
        "pre-rating": 2089,
        "post-rating": 2099,
        "location": "CHANTILLY, VA 20151",
        "final_rank": 3,
        "participants": 19,
        "long": -77.4311513,
        "lat": 38.8941543
    },
    {
        "date": "2014-12-29",
        "event": "41ST ANNUAL EASTERN OPEN (MD)",
        "section": "2: UNDER 2200",
        "link": "https://www.uschess.org/msa/XtblMain.php?201412292642.2",
        "pre-rating": 2075,
        "post-rating": 2089,
        "location": "BETHESDA, MD 20814",
        "final_rank": 3,
        "participants": 25,
        "long": -77.0941447,
        "lat": 38.9846816
    },
    {
        "date": "2014-12-19",
        "event": "DCCLW14R3 (DC)",
        "section": "1: OPEN",
        "link": "https://www.uschess.org/msa/XtblMain.php?201412191792.1",
        "pre-rating": 2068,
        "post-rating": 2075,
        "location": "WASHINGTON, DC 20005",
        "final_rank": 12,
        "participants": 36,
        "long": -77.0368427,
        "lat": 38.8950368
    },
    {
        "date": "2014-12-14",
        "event": "2014 NATIONAL K-12 GRADE CHAMPIONSHIPS (FL)",
        "section": "7: 6TH GRADE CHAMPIONSHIP",
        "link": "https://www.uschess.org/msa/XtblMain.php?201412147542.7",
        "pre-rating": 2056,
        "post-rating": 2068,
        "location": "ORLANDO, FL 32819",
        "final_rank": 1,
        "participants": 155,
        "long": -81.3788304,
        "lat": 28.5421109
    },
    {
        "date": "2014-11-30",
        "event": "NATIONAL CHESS CONGRESS (PA)",
        "section": "2: U2200",
        "link": "https://www.uschess.org/msa/XtblMain.php?201411302532.2",
        "pre-rating": 2040,
        "post-rating": 2056,
        "location": "PHILADELPHIA, PA 19107",
        "final_rank": 28,
        "participants": 88,
        "long": -75.1641262,
        "lat": 39.9527237
    },
    {
        "date": "2014-11-21",
        "event": "DCCLW14R2 (DC)",
        "section": "1: OPEN",
        "link": "https://www.uschess.org/msa/XtblMain.php?201411212632.1",
        "pre-rating": 2032,
        "post-rating": 2040,
        "location": "WASHINGTON, DC 20005",
        "final_rank": 13,
        "participants": 48,
        "long": -77.0361427,
        "lat": 38.8950368
    },
    {
        "date": "2014-11-09",
        "event": "NORTHERN VIRGINIA OPEN - 2014 (VA)",
        "section": "1: OPEN",
        "link": "https://www.uschess.org/msa/XtblMain.php?201411094352.1",
        "pre-rating": 2035,
        "post-rating": 2032,
        "location": "STERLING, VA 20166",
        "final_rank": 23,
        "participants": 95,
        "long": -77.4037349,
        "lat": 39.0017455
    },
    {
        "date": "2014-11-02",
        "event": "CAC NOV 2014 FIDE OPEN (VA)",
        "section": "1: OPEN",
        "link": "https://www.uschess.org/msa/XtblMain.php?201411021642.1",
        "pre-rating": 2042,
        "post-rating": 2035,
        "location": "CHANTILLY, VA 20151",
        "final_rank": 13,
        "participants": 26,
        "long": -77.4310513,
        "lat": 38.8941543
    },
    {
        "date": "2014-10-13",
        "event": "WASHINGTON CHESS CONGRESS (VA)",
        "section": "2: UNDER 2100",
        "link": "https://www.uschess.org/msa/XtblMain.php?201410133752.2",
        "pre-rating": 2032,
        "post-rating": 2042,
        "location": "ARLINGTON, VA 22202",
        "final_rank": 11,
        "participants": 62,
        "long": -77.0886094,
        "lat": 38.8769326
    },
    {
        "date": "2014-09-14",
        "event": "2014 UMBC CHAMPIOSHIP (MD)",
        "section": "1: OPEN14",
        "link": "https://www.uschess.org/msa/XtblMain.php?201409142882.1",
        "pre-rating": 2021,
        "post-rating": 2032,
        "location": "CATONSVILLE, MD 21250",
        "final_rank": 9,
        "participants": 29,
        "long": -76.7318456,
        "lat": 39.2720504
    },
    {
        "date": "2014-09-05",
        "event": "DCCLS14R4 (DC)",
        "section": "1: OPEN",
        "link": "https://www.uschess.org/msa/XtblMain.php?201409052062.1",
        "pre-rating": 2026,
        "post-rating": 2021,
        "location": "WASHINGTON, DC 20005",
        "final_rank": 34,
        "participants": 38,
        "long": -77.0369427,
        "lat": 38.8950368
    },
    {
        "date": "2014-09-01",
        "event": "2014 U.S. MASTERS CHESS CHAMPIONSHIP (NC)",
        "section": "1: MASTERS",
        "link": "https://www.uschess.org/msa/XtblMain.php?201409018812.1",
        "pre-rating": 2045,
        "post-rating": 2026,
        "location": "GREENSBORO, NC 27409",
        "final_rank": 75,
        "participants": 82,
        "long": -79.9080919325,
        "lat": 36.06674195
    },
    {
        "date": "2014-08-24",
        "event": "46TH ANNUAL ATLANTIC OPEN (DC)",
        "section": "1: OPEN!",
        "link": "https://www.uschess.org/msa/XtblMain.php?201408246312.1",
        "pre-rating": 2071,
        "post-rating": 2045,
        "location": "WASHINGTON, DC 20005",
        "final_rank": 44,
        "participants": 45,
        "long": -77.0360427,
        "lat": 38.8950368
    },
    {
        "date": "2014-08-16",
        "event": "ACC ACTION PLUS AUG 16, 2014 (VA)",
        "section": "1: OPEN",
        "link": "https://www.uschess.org/msa/XtblMain.php?201408163732.1",
        "pre-rating": 2086,
        "post-rating": 2071,
        "location": "ARLINGTON, VA 22202",
        "final_rank": 5,
        "participants": 26,
        "long": -77.0900094,
        "lat": 38.8769326
    },
    {
        "date": "2014-08-15",
        "event": "DCCLS14R3 (DC)",
        "section": "1: OPEN",
        "link": "https://www.uschess.org/msa/XtblMain.php?201408155562.1",
        "pre-rating": 2075,
        "post-rating": 2086,
        "location": "WASHINGTON, DC 20005",
        "final_rank": 10,
        "participants": 40,
        "long": -77.0370427,
        "lat": 38.8950368
    },
    {
        "date": "2014-08-03",
        "event": "4TH ANNUAL POTOMAC OPEN (MD)",
        "section": "1: CHAMP",
        "link": "https://www.uschess.org/msa/XtblMain.php?201408039082.1",
        "pre-rating": 2071,
        "post-rating": 2075,
        "location": "ROCKVILLE, MD 20852",
        "final_rank": 19,
        "participants": 25,
        "long": -77.1506844,
        "lat": 39.0817985
    },
    {
        "date": "2014-07-20",
        "event": "41ST LIPKIN/PFEFFERKORN OPEN (NC)",
        "section": "1: CHAMPIONSHIP",
        "link": "https://www.uschess.org/msa/XtblMain.php?201407203292.1",
        "pre-rating": 2045,
        "post-rating": 2071,
        "location": "WINSTON-SALEM, NC 27105",
        "final_rank": 7,
        "participants": 27,
        "long": -80.2440518,
        "lat": 36.0998131
    },
    {
        "date": "2014-07-11",
        "event": "DCCLS14R2 (DC)",
        "section": "1: OPEN",
        "link": "https://www.uschess.org/msa/XtblMain.php?201407113572.1",
        "pre-rating": 2040,
        "post-rating": 2045,
        "location": "WASHINGTON, DC 20005",
        "final_rank": 22,
        "participants": 40,
        "long": -77.0359427,
        "lat": 38.8950368
    },
    {
        "date": "2014-07-06",
        "event": "WORLD OPEN (VA)",
        "section": "3: UNDER2200",
        "link": "https://www.uschess.org/msa/XtblMain.php?201407068692.3",
        "pre-rating": 2033,
        "post-rating": 2040,
        "location": "ARLINGTON, VA 22202",
        "final_rank": 69,
        "participants": 197,
        "long": -77.0885094,
        "lat": 38.8769326
    },
    {
        "date": "2014-06-21",
        "event": "DCCLS14R1 (DC)",
        "section": "1: OPEN",
        "link": "https://www.uschess.org/msa/XtblMain.php?201406216602.1",
        "pre-rating": 2012,
        "post-rating": 2033,
        "location": "WASHINGTON, DC 20005",
        "final_rank": 14,
        "participants": 40,
        "long": -77.0371427,
        "lat": 38.8950368
    },
    {
        "date": "2014-06-16",
        "event": "2014 NORTH AMERICAN YOUTH (NY)",
        "section": "6: U12 OPEN",
        "link": "https://www.uschess.org/msa/XtblMain.php?201406164192.6",
        "pre-rating": 2002,
        "post-rating": 2012,
        "location": "TARRYTOWN, NY 10591",
        "final_rank": 9,
        "participants": 54,
        "long": -73.8587461,
        "lat": 41.0762077
    },
    {
        "date": "2014-05-26",
        "event": "2D CHERRY BLOSSOM CLASSIC (VA)",
        "section": "4: OPEN",
        "link": "https://www.uschess.org/msa/XtblMain.php?201405264332.4",
        "pre-rating": 2021,
        "post-rating": 2002,
        "location": "DULLES, VA 20166",
        "final_rank": 28,
        "participants": 36,
        "long": -77.4530849116,
        "lat": 38.95226625
    },
    {
        "date": "2014-05-04",
        "event": "15TH PITTSBURGH OPEN (PA)",
        "section": "2: UNDER 2100",
        "link": "https://www.uschess.org/msa/XtblMain.php?201405045972.2",
        "pre-rating": 1987,
        "post-rating": 2021,
        "location": "GREENSBURG, PA 15601",
        "final_rank": 2,
        "participants": 22,
        "long": -79.5389289,
        "lat": 40.3014581
    },
    {
        "date": "2014-04-20",
        "event": "PHILADELPHIA OPEN (PA)",
        "section": "2: UNDER2200",
        "link": "https://www.uschess.org/msa/XtblMain.php?201404200952.2",
        "pre-rating": 2017,
        "post-rating": 1987,
        "location": "PHILADELPHIA, PA 19107",
        "final_rank": 57,
        "participants": 94,
        "long": -75.1628262,
        "lat": 39.9527237
    },
    {
        "date": "2014-03-29",
        "event": "ACC ACTION PLUS (VA)",
        "section": "1: OPEN",
        "link": "https://www.uschess.org/msa/XtblMain.php?201403291672.1",
        "pre-rating": 2018,
        "post-rating": 2017,
        "location": "ARLINGTON, VA 22202",
        "final_rank": 10,
        "participants": 37,
        "long": -77.0901094,
        "lat": 38.8769326
    },
    {
        "date": "2014-03-16",
        "event": "VA SCHOLASTIC & COLLEGIATE CHAMPS (VA)",
        "section": "3: K-8",
        "link": "https://www.uschess.org/msa/XtblMain.php?201403166152.3",
        "pre-rating": 2034,
        "post-rating": 2018,
        "location": "ROANOKE, VA 24017",
        "final_rank": 29,
        "participants": 115,
        "long": -79.9413313,
        "lat": 37.270973
    },
    {
        "date": "2014-03-02",
        "event": "UMBC- ALVIN S MINTES CHESS TOU (MD)",
        "section": "2: OPEN",
        "link": "https://www.uschess.org/msa/XtblMain.php?201403020312.2",
        "pre-rating": 2062,
        "post-rating": 2034,
        "location": "BALTIMORE, MD 21231",
        "final_rank": 17,
        "participants": 36,
        "long": -76.610659,
        "lat": 39.2908816
    },
    {
        "date": "2014-02-09",
        "event": "52ND BALTIMORE OPEN (MD)",
        "section": "2: U2100",
        "link": "https://www.uschess.org/msa/XtblMain.php?201402092032.2",
        "pre-rating": 1966,
        "post-rating": 2062,
        "location": "LINTHICUM HEIGHTS, MD 21090",
        "final_rank": 1,
        "participants": 17,
        "long": -76.6595094,
        "lat": 39.2039094
    },
    {
        "date": "2014-01-31",
        "event": "ACC ACTION JANUARY 2014 (VA)",
        "section": "1: OPEN",
        "link": "https://www.uschess.org/msa/XtblMain.php?201401317942.1",
        "pre-rating": 1969,
        "post-rating": 1966,
        "location": "ARLINGTON, VA 22202",
        "final_rank": 4,
        "participants": 17,
        "long": -77.0884094,
        "lat": 38.8769326
    },
    {
        "date": "2014-01-25",
        "event": "ACC ACTION-PLUS JANUARY 2014 (VA)",
        "section": "1: OPEN",
        "link": "https://www.uschess.org/msa/XtblMain.php?201401255922.1",
        "pre-rating": 1923,
        "post-rating": 1969,
        "location": "ARLINGTON, VA 22202",
        "final_rank": 4,
        "participants": 20,
        "long": -77.0902094,
        "lat": 38.8769326
    },
    {
        "date": "2014-01-20",
        "event": "46TH ANNUAL LIBERTY BELL OPEN (PA)",
        "section": "2: UNDER 2100",
        "link": "https://www.uschess.org/msa/XtblMain.php?201401203712.2",
        "pre-rating": 1926,
        "post-rating": 1923,
        "location": "PHILADELPHIA, PA 19103",
        "final_rank": 33,
        "participants": 68,
        "long": -75.1642262,
        "lat": 39.9527237
    },
    {
        "date": "2014-01-11",
        "event": "KINGSTOWNE QUAD #98/ACTION-PLU (VA)",
        "section": "1: ACT-PLUS",
        "link": "https://www.uschess.org/msa/XtblMain.php?201401110002.1",
        "pre-rating": 1918,
        "post-rating": 1926,
        "location": "ALEXANDRIA, VA 22315",
        "final_rank": 3,
        "participants": 12,
        "long": -77.0469229,
        "lat": 38.8051095
    },
    {
        "date": "2013-12-14",
        "event": "ACC ACTION-PLUS DECEMBER 2013 (VA)",
        "section": "1: OPEN",
        "link": "https://www.uschess.org/msa/XtblMain.php?201312141292.1",
        "pre-rating": 1926,
        "post-rating": 1918,
        "location": "ARLINGTON, VA 22202",
        "final_rank": 14,
        "participants": 20,
        "long": -77.0883094,
        "lat": 38.8769326
    },
    {
        "date": "2013-11-24",
        "event": "CAC 2013 FIDE OPEN III (VA)",
        "section": "1: OPEN",
        "link": "https://www.uschess.org/msa/XtblMain.php?201311243462.1",
        "pre-rating": 1908,
        "post-rating": 1926,
        "location": "CHANTILLY, VA 20151",
        "final_rank": 10,
        "participants": 25,
        "long": -77.4312513,
        "lat": 38.8941543
    },
    {
        "date": "2013-11-16",
        "event": "ACC ACTION-PLUS NOVEMBER 2013 (VA)",
        "section": "1: OPEN",
        "link": "https://www.uschess.org/msa/XtblMain.php?201311160412.1",
        "pre-rating": 1900,
        "post-rating": 1908,
        "location": "ARLINGTON, VA 22202",
        "final_rank": 11,
        "participants": 23,
        "long": -77.0903094,
        "lat": 38.8769326
    },
    {
        "date": "2013-11-02",
        "event": "STERLING CHESS #46: NOVEMBER (VA)",
        "section": "1: OPEN",
        "link": "https://www.uschess.org/msa/XtblMain.php?201311025052.1",
        "pre-rating": 1898,
        "post-rating": 1900,
        "location": "ASHBURN, VA 20147",
        "final_rank": 8,
        "participants": 13,
        "long": -77.4910968,
        "lat": 39.0049709
    },
    {
        "date": "2013-10-27",
        "event": "CAC 2013 FIDE OPEN II (VA)",
        "section": "1: OPEN",
        "link": "https://www.uschess.org/msa/XtblMain.php?201310272542.1",
        "pre-rating": 1886,
        "post-rating": 1898,
        "location": "CHANTILLY, VA 20151",
        "final_rank": 14,
        "participants": 19,
        "long": -77.4309513,
        "lat": 38.8941543
    },
    {
        "date": "2013-10-19",
        "event": "ACC ACTION-PLUS OCTOBER 2013 (VA)",
        "section": "1: OPEN",
        "link": "https://www.uschess.org/msa/XtblMain.php?201310190072.1",
        "pre-rating": 1908,
        "post-rating": 1886,
        "location": "ARLINGTON, VA 22202",
        "final_rank": 13,
        "participants": 20,
        "long": -77.0882094,
        "lat": 38.8769326
    },
    {
        "date": "2013-09-28",
        "event": "ACC ACTION-PLUS SEPTEMBER 2013 (VA)",
        "section": "1: OPEN",
        "link": "https://www.uschess.org/msa/XtblMain.php?201309281932.1",
        "pre-rating": 1852,
        "post-rating": 1908,
        "location": "ARLINGTON, VA 22202",
        "final_rank": 4,
        "participants": 22,
        "long": -77.0904094,
        "lat": 38.8769326
    },
    {
        "date": "2013-09-22",
        "event": "CAC 2013 FIDE OPEN I (VA)",
        "section": "1: OPEN",
        "link": "https://www.uschess.org/msa/XtblMain.php?201309229382.1",
        "pre-rating": 1868,
        "post-rating": 1852,
        "location": "CHANTILLY, VA 20151",
        "final_rank": 19,
        "participants": 20,
        "long": -77.4313513,
        "lat": 38.8941543
    },
    {
        "date": "2013-09-15",
        "event": "2013 UMBC CHAMPIONSHIP (MD)",
        "section": "2: OPEN-2013",
        "link": "https://www.uschess.org/msa/XtblMain.php?201309157232.2",
        "pre-rating": 1885,
        "post-rating": 1868,
        "location": "BALTIMORE, MD 21250",
        "final_rank": 33,
        "participants": 33,
        "long": -76.610859,
        "lat": 39.2908816
    },
    {
        "date": "2013-09-02",
        "event": "77TH VA CLOSED CHAMPIONSHIPS (VA)",
        "section": "1: OPEN",
        "link": "https://www.uschess.org/msa/XtblMain.php?201309023362.1",
        "pre-rating": 1875,
        "post-rating": 1885,
        "location": "GLEN ALLEN, VA 23060",
        "final_rank": 25,
        "participants": 37,
        "long": -77.5062739,
        "lat": 37.665978
    },
    {
        "date": "2013-08-25",
        "event": "45TH ANNUAL ATLANTIC OPEN (DC)",
        "section": "2: UNDER 2100",
        "link": "https://www.uschess.org/msa/XtblMain.php?201308250662.2",
        "pre-rating": 1913,
        "post-rating": 1875,
        "location": "WASHINGTON, DC 20005",
        "final_rank": 29,
        "participants": 34,
        "long": -77.0358427,
        "lat": 38.8950368
    },
    {
        "date": "2013-07-20",
        "event": "ACC ACTION-PLUS JULY 2013 (VA)",
        "section": "1: OPEN",
        "link": "https://www.uschess.org/msa/XtblMain.php?201307208262.1",
        "pre-rating": 1899,
        "post-rating": 1913,
        "location": "ARLINGTON, VA 22202",
        "final_rank": 8,
        "participants": 26,
        "long": -77.0881094,
        "lat": 38.8769326
    },
    {
        "date": "2013-07-12",
        "event": "DCCLS13R2 (DC)",
        "section": "3: AMATEUR",
        "link": "https://www.uschess.org/msa/XtblMain.php?201307191842.3",
        "pre-rating": 1911,
        "post-rating": 1899,
        "location": "WASHINGTON, DC 20005",
        "final_rank": 10,
        "participants": 16,
        "long": -77.0372427,
        "lat": 38.8950368
    },
    {
        "date": "2013-07-07",
        "event": "41ST ANNUAL WORLD OPEN (VA)",
        "section": "4: UNDER2000",
        "link": "https://www.uschess.org/msa/XtblMain.php?201307074482.4",
        "pre-rating": 1900,
        "post-rating": 1911,
        "location": "ARLINGTON, VA 22202",
        "final_rank": 86,
        "participants": 217,
        "long": -77.0905094,
        "lat": 38.8769326
    },
    {
        "date": "2013-06-17",
        "event": "2013 CHESSKID.COM NATIONAL CHAMPS (AZ)",
        "section": "2: UNDER 10",
        "link": "https://www.uschess.org/msa/XtblMain.php?201306178482.2",
        "pre-rating": 1892,
        "post-rating": 1900,
        "location": "PAYSON, AZ 85541",
        "final_rank": 4,
        "participants": 8,
        "long": -111.323026,
        "lat": 34.2406479
    },
    {
        "date": "2013-06-09",
        "event": "FPW #153 (MD)",
        "section": "1: 06-08-13",
        "link": "https://www.uschess.org/msa/XtblMain.php?201306093962.1",
        "pre-rating": 1883,
        "post-rating": 1892,
        "location": "BALTIMORE, MD 21231",
        "final_rank": 3,
        "participants": 17,
        "long": -76.610559,
        "lat": 39.2908816
    },
    {
        "date": "2013-04-07",
        "event": "2013 SUPER NATIONALS V (TN)",
        "section": "10: K5",
        "link": "https://www.uschess.org/msa/XtblMain.php?201304070322.10",
        "pre-rating": 1925,
        "post-rating": 1883,
        "location": "NASHVILLE, TN 37214",
        "final_rank": 91,
        "participants": 355,
        "long": -86.7742984,
        "lat": 36.1622767
    },
    {
        "date": "2013-03-30",
        "event": "ACC ACTION-PLUS MARCH 2013 (VA)",
        "section": "1: OPEN",
        "link": "https://www.uschess.org/msa/XtblMain.php?201303308552.1",
        "pre-rating": 1911,
        "post-rating": 1925,
        "location": "ARLINGTON, VA 22202",
        "final_rank": 7,
        "participants": 14,
        "long": -77.0880094,
        "lat": 38.8769326
    },
    {
        "date": "2013-03-17",
        "event": "45TH VIRGINIA OPEN-2013 (VA)",
        "section": "1: OPEN",
        "link": "https://www.uschess.org/msa/XtblMain.php?201303173422.1",
        "pre-rating": 1932,
        "post-rating": 1911,
        "location": "DULLES, VA 20166",
        "final_rank": 47,
        "participants": 48,
        "long": -77.4538849116,
        "lat": 38.95226625
    },
    {
        "date": "2013-03-10",
        "event": "VA SCHOLASTIC & COLLEGIATE CHAMPS (VA)",
        "section": "2: K-5",
        "link": "https://www.uschess.org/msa/XtblMain.php?201303100802.2",
        "pre-rating": 1917,
        "post-rating": 1932,
        "location": "FARMVILLE, VA 23909",
        "final_rank": 1,
        "participants": 93,
        "long": -78.3923813,
        "lat": 37.3024713
    },
    {
        "date": "2013-02-16",
        "event": "ACC SATURDAY ACTION PLUS FEBRUARY 2 (VA)",
        "section": "1: OPEN",
        "link": "https://www.uschess.org/msa/XtblMain.php?201302162782.1",
        "pre-rating": 1814,
        "post-rating": 1917,
        "location": "ARLINGTON, VA 22202",
        "final_rank": 2,
        "participants": 14,
        "long": -77.0906094,
        "lat": 38.8769326
    },
    {
        "date": "2013-02-10",
        "event": "51ST ANNUAL BALTIMORE OPEN (MD)",
        "section": "2: U1900",
        "link": "https://www.uschess.org/msa/XtblMain.php?201302109892.2",
        "pre-rating": 1846,
        "post-rating": 1814,
        "location": "JESSUP, MD 20794",
        "final_rank": 20,
        "participants": 29,
        "long": -76.7752493,
        "lat": 39.1492746
    },
    {
        "date": "2013-02-02",
        "event": "FELLS POINT WEEKEND #139 (MD)",
        "section": "1: 02-02-13",
        "link": "https://www.uschess.org/msa/XtblMain.php?201302026162.1",
        "pre-rating": 1836,
        "post-rating": 1846,
        "location": "BALTIMORE, MD 21231",
        "final_rank": 2,
        "participants": 14,
        "long": -76.610959,
        "lat": 39.2908816
    },
    {
        "date": "2013-01-25",
        "event": "DCCL13R4-5 (DC)",
        "section": "2: AMATEUR R4",
        "link": "https://www.uschess.org/msa/XtblMain.php?201302081522.2",
        "pre-rating": 1847,
        "post-rating": 1836,
        "location": "WASHINGTON, DC 20005",
        "final_rank": 11,
        "participants": 14,
        "long": -77.0357427,
        "lat": 38.8950368
    },
    {
        "date": "2013-01-13",
        "event": "5TH ANNUAL CHESAPEAKE OPEN (MD)",
        "section": "2: U2000",
        "link": "https://www.uschess.org/msa/XtblMain.php?201301138122.2",
        "pre-rating": 1870,
        "post-rating": 1847,
        "location": "GAITHERSBURG, MD 20878",
        "final_rank": 14,
        "participants": 17,
        "long": -77.1929215,
        "lat": 39.1399187
    },
    {
        "date": "2012-12-30",
        "event": "31ST ANNUAL EMPIRE CITY OPEN (NY)",
        "section": "3: UNDER 1900",
        "link": "https://www.uschess.org/msa/XtblMain.php?201212303332.3",
        "pre-rating": 1796,
        "post-rating": 1870,
        "location": "NEW YORK, NY 10001",
        "final_rank": 1,
        "participants": 77,
        "long": -74.0061152,
        "lat": 40.7127281
    },
    {
        "date": "2012-12-22",
        "event": "STERLING CHESS #38: DECEMBER (VA)",
        "section": "5: EXTRA",
        "link": "https://www.uschess.org/msa/XtblMain.php?201212221422.5",
        "pre-rating": 1791,
        "post-rating": 1796,
        "location": "STERLING, VA 20166",
        "final_rank": 2,
        "participants": 9,
        "long": -77.4028349,
        "lat": 39.0017455
    },
    {
        "date": "2012-12-22",
        "event": "STERLING CHESS #38: DECEMBER (VA)",
        "section": "1: OPEN",
        "link": "https://www.uschess.org/msa/XtblMain.php?201212221422.1",
        "pre-rating": 1818,
        "post-rating": 1791,
        "location": "STERLING, VA 20166",
        "final_rank": 16,
        "participants": 18,
        "long": -77.4038349,
        "lat": 39.0017455
    },
    {
        "date": "2012-12-14",
        "event": "DCCL WINTER 12-13 RD 3 (DC)",
        "section": "2: AMATEUR",
        "link": "https://www.uschess.org/msa/XtblMain.php?201212140782.2",
        "pre-rating": 1822,
        "post-rating": 1818,
        "location": "WASHINGTON, DC 20005",
        "final_rank": 10,
        "participants": 22,
        "long": -77.0373427,
        "lat": 38.8950368
    },
    {
        "date": "2012-12-09",
        "event": "3RD ANNUAL FAIRFAX OPEN (VA)",
        "section": "1: OPEN",
        "link": "https://www.uschess.org/msa/XtblMain.php?201212097312.1",
        "pre-rating": 1831,
        "post-rating": 1822,
        "location": "FAIRFAX, VA 22030",
        "final_rank": 25,
        "participants": 29,
        "long": -77.3063733,
        "lat": 38.8462236
    },
    {
        "date": "2012-11-25",
        "event": "NATIONAL CHESS CONGRESS (PA)",
        "section": "3: UNDER2000",
        "link": "https://www.uschess.org/msa/XtblMain.php?201211252572.3",
        "pre-rating": 1826,
        "post-rating": 1831,
        "location": "PHILADELPHIA, PA 19103",
        "final_rank": 31,
        "participants": 72,
        "long": -75.1627262,
        "lat": 39.9527237
    },
    {
        "date": "2012-11-25",
        "event": "NATIONAL CHESS CONGRESS (PA)",
        "section": "1: PREMIER",
        "link": "https://www.uschess.org/msa/XtblMain.php?201211252572.1",
        "pre-rating": 1830,
        "post-rating": 1826,
        "location": "PHILADELPHIA, PA 19103",
        "final_rank": 46,
        "participants": 46,
        "long": -75.1643262,
        "lat": 39.9527237
    },
    {
        "date": "2012-11-17",
        "event": "ACC ACTION PLUS - NOV 2012 (VA)",
        "section": "1: OPEN",
        "link": "https://www.uschess.org/msa/XtblMain.php?201211170232.1",
        "pre-rating": 1807,
        "post-rating": 1830,
        "location": "ARLINGTON, VA 22202",
        "final_rank": 6,
        "participants": 11,
        "long": -77.0879094,
        "lat": 38.8769326
    },
    {
        "date": "2012-11-11",
        "event": "2012 NORTHERN VIRGINIA OPEN (VA)",
        "section": "1: MAIN",
        "link": "https://www.uschess.org/msa/XtblMain.php?201211117662.1",
        "pre-rating": 1818,
        "post-rating": 1807,
        "location": "DULLES, VA 20166",
        "final_rank": 37,
        "participants": 106,
        "long": -77.4529849116,
        "lat": 38.95226625
    },
    {
        "date": "2012-11-04",
        "event": "FELLS POINT WEEKEND #127 (MD)",
        "section": "1: 11-03-12",
        "link": "https://www.uschess.org/msa/XtblMain.php?201211045242.1",
        "pre-rating": 1778,
        "post-rating": 1818,
        "location": "BALTIMORE, MD 21231",
        "final_rank": 1,
        "participants": 8,
        "long": -76.610459,
        "lat": 39.2908816
    },
    {
        "date": "2012-10-26",
        "event": "ACC OCTOBER 2012 (VA)",
        "section": "1: LADDER",
        "link": "https://www.uschess.org/msa/XtblMain.php?201210262542.1",
        "pre-rating": 1764,
        "post-rating": 1778,
        "location": "ARLINGTON, VA 22202",
        "final_rank": 4,
        "participants": 44,
        "long": -77.0907094,
        "lat": 38.8769326
    },
    {
        "date": "2012-10-08",
        "event": "CONTINENTAL CLASS (VA)",
        "section": "3: CLASS A",
        "link": "https://www.uschess.org/msa/XtblMain.php?201210085952.3",
        "pre-rating": 1778,
        "post-rating": 1764,
        "location": "ARLINGTON, VA 22202",
        "final_rank": 25,
        "participants": 30,
        "long": -77.0878094,
        "lat": 38.8769326
    },
    {
        "date": "2012-09-28",
        "event": "ACC SEPTEMBER 2012 (VA)",
        "section": "1: LADDER",
        "link": "https://www.uschess.org/msa/XtblMain.php?201209282192.1",
        "pre-rating": 1770,
        "post-rating": 1778,
        "location": "ARLINGTON, VA 22202",
        "final_rank": 17,
        "participants": 47,
        "long": -77.0908094,
        "lat": 38.8769326
    },
    {
        "date": "2012-09-23",
        "event": "FELLS POINT WEEKEND #121 (MD)",
        "section": "1: 09-22-12",
        "link": "https://www.uschess.org/msa/XtblMain.php?201209230172.1",
        "pre-rating": 1722,
        "post-rating": 1770,
        "location": "BALTIMORE, MD 21231",
        "final_rank": 3,
        "participants": 10,
        "long": -76.611059,
        "lat": 39.2908816
    },
    {
        "date": "2012-09-02",
        "event": "2012 MD ACTION CHAMP (MD)",
        "section": "1: 2012ACTION",
        "link": "https://www.uschess.org/msa/XtblMain.php?201209023522.1",
        "pre-rating": 1726,
        "post-rating": 1722,
        "location": "BALTIMORE, MD 21231",
        "final_rank": 15,
        "participants": 41,
        "long": -76.610359,
        "lat": 39.2908816
    },
    {
        "date": "2012-08-18",
        "event": "ASHBURN MOSCOW ROUND-ROBIN (VA)",
        "section": "1: ROUND ROBI",
        "link": "https://www.uschess.org/msa/XtblMain.php?201208189212.1",
        "pre-rating": 1614,
        "post-rating": 1726,
        "location": "ASHBURN, VA 20147",
        "final_rank": 4,
        "participants": 12,
        "long": -77.4912968,
        "lat": 39.0049709
    },
    {
        "date": "2012-08-11",
        "event": "2012 ASBURN SUMMER CAMP 111 (VA)",
        "section": "1: ACC",
        "link": "https://www.uschess.org/msa/XtblMain.php?201208117782.1",
        "pre-rating": 1619,
        "post-rating": 1614,
        "location": "ASHBURN, VA 20147",
        "final_rank": 6,
        "participants": 13,
        "long": -77.4909968,
        "lat": 39.0049709
    },
    {
        "date": "2012-08-10",
        "event": "DCCL SUMMER 2012 RD3 (DC)",
        "section": "2: AMATEUR",
        "link": "https://www.uschess.org/msa/XtblMain.php?201208108322.2",
        "pre-rating": 1628,
        "post-rating": 1619,
        "location": "WASHINGTON, DC 20005",
        "final_rank": 15,
        "participants": 16,
        "long": -77.0356427,
        "lat": 38.8950368
    },
    {
        "date": "2012-08-05",
        "event": "2012 POTOMAC OPEN (MD)",
        "section": "2: U1900",
        "link": "https://www.uschess.org/msa/XtblMain.php?201208054892.2",
        "pre-rating": 1635,
        "post-rating": 1628,
        "location": "ROCKVILLE, MD 20852",
        "final_rank": 31,
        "participants": 41,
        "long": -77.1526844,
        "lat": 39.0817985
    },
    {
        "date": "2012-07-28",
        "event": "THIRD SATURDAY SWISS JULY (VA)",
        "section": "1: OPEN",
        "link": "https://www.uschess.org/msa/XtblMain.php?201207283572.1",
        "pre-rating": 1586,
        "post-rating": 1635,
        "location": "ASHBURN, VA 20147",
        "final_rank": 1,
        "participants": 9,
        "long": -77.4913968,
        "lat": 39.0049709
    },
    {
        "date": "2012-07-21",
        "event": "ASHBURN_JULY_CHESS_CAMP-2012 (VA)",
        "section": "1: ACC",
        "link": "https://www.uschess.org/msa/XtblMain.php?201207210562.1",
        "pre-rating": 1636,
        "post-rating": 1586,
        "location": "ASHBURN, VA 20147",
        "final_rank": 8,
        "participants": 9,
        "long": -77.4908968,
        "lat": 39.0049709
    },
    {
        "date": "2012-07-14",
        "event": "FIRST SATURDAY QUAD MAKE UP DA (VA)",
        "section": "4: QB",
        "link": "https://www.uschess.org/msa/XtblMain.php?201207148392.4",
        "pre-rating": 1611,
        "post-rating": 1636,
        "location": "ASHBURN, VA 20147",
        "final_rank": 3,
        "participants": 4,
        "long": -77.4914968,
        "lat": 39.0049709
    },
    {
        "date": "2012-07-08",
        "event": "40TH ANNUAL WORLD OPEN (PA)",
        "section": "6: UNDER1600",
        "link": "https://www.uschess.org/msa/XtblMain.php?201207085812.6",
        "pre-rating": 1607,
        "post-rating": 1611,
        "location": "PHILADELPHIA, PA 19103 US",
        "final_rank": 17,
        "participants": 145,
        "long": -75.1626262,
        "lat": 39.9527237
    },
    {
        "date": "2012-06-30",
        "event": "ASHBURN ROAD TO MASTERY SUMMER (VA)",
        "section": "1: JACC",
        "link": "https://www.uschess.org/msa/XtblMain.php?201206303042.1",
        "pre-rating": 1626,
        "post-rating": 1607,
        "location": "ASHBURN, VA 20147",
        "final_rank": 2,
        "participants": 6,
        "long": -77.4907968,
        "lat": 39.0049709
    },
    {
        "date": "2012-06-16",
        "event": "THIRD SATURDAY SWISS JUN 2012 (VA)",
        "section": "1: OPEN",
        "link": "https://www.uschess.org/msa/XtblMain.php?201206168822.1",
        "pre-rating": 1543,
        "post-rating": 1626,
        "location": "ASHBURN, VA 20147",
        "final_rank": 2,
        "participants": 10,
        "long": -77.4915968,
        "lat": 39.0049709
    },
    {
        "date": "2012-06-15",
        "event": "DCCL SUMMER RD 1 (DC)",
        "section": "2: AMATEUR",
        "link": "https://www.uschess.org/msa/XtblMain.php?201206159172.2",
        "pre-rating": 1535,
        "post-rating": 1543,
        "location": "WASHINGTON, DC 20005",
        "final_rank": 10,
        "participants": 16,
        "long": -77.0374427,
        "lat": 38.8950368
    },
    {
        "date": "2012-05-26",
        "event": "STERLING CHESS #31: MAY (VA)",
        "section": "1: OPEN",
        "link": "https://www.uschess.org/msa/XtblMain.php?201205262242.1",
        "pre-rating": 1469,
        "post-rating": 1535,
        "location": "STERLING, VA 20166",
        "final_rank": 6,
        "participants": 34,
        "long": -77.4027349,
        "lat": 39.0017455
    },
    {
        "date": "2012-05-13",
        "event": "2012 NATIONAL ELEMENTARY CHAMPIONSHIP (TN)",
        "section": "5: K3",
        "link": "https://www.uschess.org/msa/XtblMain.php?201205137962.5",
        "pre-rating": 1464,
        "post-rating": 1469,
        "location": "NASHVILLE, TN 37214",
        "final_rank": 21,
        "participants": 255,
        "long": -86.7741984,
        "lat": 36.1622767
    },
    {
        "date": "2012-05-01",
        "event": "ASHBURN FIRST SATURDAY QUAD MA (VA)",
        "section": "2: FSQ2",
        "link": "https://www.uschess.org/msa/XtblMain.php?201205016482.2",
        "pre-rating": 1425,
        "post-rating": 1464,
        "location": "ASHBURN, VA 20147",
        "final_rank": 3,
        "participants": 4,
        "long": -77.4906968,
        "lat": 39.0049709
    },
    {
        "date": "2012-04-28",
        "event": "STERLING CHESS #30: APRIL (VA)",
        "section": "1: OPEN",
        "link": "https://www.uschess.org/msa/XtblMain.php?201204282822.1",
        "pre-rating": 1437,
        "post-rating": 1425,
        "location": "STERLING, VA 20166",
        "final_rank": 15,
        "participants": 25,
        "long": -77.4039349,
        "lat": 39.0017455
    },
    {
        "date": "2012-04-15",
        "event": "KINGSTOWNE CHESS FESTIVAL (VA)",
        "section": "3: BOOSTER",
        "link": "https://www.uschess.org/msa/XtblMain.php?201204158182.3",
        "pre-rating": 1440,
        "post-rating": 1437,
        "location": "ALEXANDRIA, VA 22315",
        "final_rank": 8,
        "participants": 14,
        "long": -77.0471229,
        "lat": 38.8051095
    },
    {
        "date": "2012-04-07",
        "event": "ASHBURN FIRST SATURDAY QUAD AP (VA)",
        "section": "2: Q0407",
        "link": "https://www.uschess.org/msa/XtblMain.php?201204075402.2",
        "pre-rating": 1416,
        "post-rating": 1440,
        "location": "ASHBURN, VA 20147",
        "final_rank": 1,
        "participants": 4,
        "long": -77.4916968,
        "lat": 39.0049709
    },
    {
        "date": "2012-03-31",
        "event": "STERLING CHESS MARCH OPEN AND  (VA)",
        "section": "2: U1500",
        "link": "https://www.uschess.org/msa/XtblMain.php?201203313192.2",
        "pre-rating": 1369,
        "post-rating": 1416,
        "location": "STERLING, VA 20166",
        "final_rank": 1,
        "participants": 14,
        "long": -77.4026349,
        "lat": 39.0017455
    },
    {
        "date": "2012-03-24",
        "event": "THIRD SATURDAY SWISS 201203 (VA)",
        "section": "1: OPEN",
        "link": "https://www.uschess.org/msa/XtblMain.php?201203240462.1",
        "pre-rating": 1325,
        "post-rating": 1369,
        "location": "ASHBURN, VA 20147",
        "final_rank": 11,
        "participants": 14,
        "long": -77.4905968,
        "lat": 39.0049709
    },
    {
        "date": "2012-03-18",
        "event": "VA SCHOLASTIC & COLLEGIATE CHAMPS (VA)",
        "section": "1: K-3",
        "link": "https://www.uschess.org/msa/XtblMain.php?201203187862.1",
        "pre-rating": 1317,
        "post-rating": 1325,
        "location": "MCLEAN, VA 22102",
        "final_rank": 4,
        "participants": 173,
        "long": -77.2101036,
        "lat": 38.9245311
    },
    {
        "date": "2012-03-10",
        "event": "MCNAIR 2012 SCHOLASTIC CHAMPIO (VA)",
        "section": "1: K-12",
        "link": "https://www.uschess.org/msa/XtblMain.php?201203104972.1",
        "pre-rating": 1337,
        "post-rating": 1317,
        "location": "HERNDON, VA 20171",
        "final_rank": 14,
        "participants": 19,
        "long": -77.3854557,
        "lat": 38.9528369
    },
    {
        "date": "2012-03-04",
        "event": "44TH ANNUAL VIRGINIA OPEN (VA)",
        "section": "2: AMATEUR",
        "link": "https://www.uschess.org/msa/XtblMain.php?201203043012.2",
        "pre-rating": 1338,
        "post-rating": 1337,
        "location": "STERLING, VA 20166",
        "final_rank": 69,
        "participants": 91,
        "long": -77.4040349,
        "lat": 39.0017455
    },
    {
        "date": "2012-02-25",
        "event": "STERLING CHESS #28: FEBRUARY (VA)",
        "section": "1: OPEN",
        "link": "https://www.uschess.org/msa/XtblMain.php?201202258742.1",
        "pre-rating": 1347,
        "post-rating": 1338,
        "location": "STERLING, VA 20166",
        "final_rank": 17,
        "participants": 28,
        "long": -77.4025349,
        "lat": 39.0017455
    },
    {
        "date": "2012-02-04",
        "event": "3RD ANNUAL GREATER MID-ATLANTIC SCHOLASTIC CHAMPIO (MD)",
        "section": "3: ELEMENTARY CHAMP",
        "link": "https://www.uschess.org/msa/XtblMain.php?201202040502.3",
        "pre-rating": 1271,
        "post-rating": 1347,
        "location": "BALTIMORE, MD 21212",
        "final_rank": 4,
        "participants": 45,
        "long": -76.611159,
        "lat": 39.2908816
    },
    {
        "date": "2012-01-15",
        "event": "DC JUNIOR OPEN (DC)",
        "section": "3: PRETEEN",
        "link": "https://www.uschess.org/msa/XtblMain.php?201201150752.3",
        "pre-rating": 1189,
        "post-rating": 1271,
        "location": "WASHINGTON, DC 20005 UNITED STATES",
        "final_rank": 3,
        "participants": 16,
        "long": -77.0355427,
        "lat": 38.8950368
    },
    {
        "date": "2012-01-12",
        "event": "ASHBURN TOURNAMENT&TRAINING (VA)",
        "section": "2: TT2",
        "link": "https://www.uschess.org/msa/XtblMain.php?201201122022.2",
        "pre-rating": 1195,
        "post-rating": 1189,
        "location": "ASHBURN, VA 20147",
        "final_rank": 2,
        "participants": 2,
        "long": -77.4917968,
        "lat": 39.0049709
    },
    {
        "date": "2012-01-12",
        "event": "ASHBURN TOURNAMENT&TRAINING (VA)",
        "section": "1: TT1",
        "link": "https://www.uschess.org/msa/XtblMain.php?201201122022.1",
        "pre-rating": 1200,
        "post-rating": 1195,
        "location": "ASHBURN, VA 20147",
        "final_rank": 2,
        "participants": 2,
        "long": -77.4904968,
        "lat": 39.0049709
    },
    {
        "date": "2012-01-07",
        "event": "ASHBURN FIRST SATURDAY QUAD 01 (VA)",
        "section": "2: FSQ2",
        "link": "https://www.uschess.org/msa/XtblMain.php?201201077712.2",
        "pre-rating": 1219,
        "post-rating": 1200,
        "location": "ASHBURN, VA 20147",
        "final_rank": 2,
        "participants": 4,
        "long": -77.4918968,
        "lat": 39.0049709
    },
    {
        "date": "2012-01-01",
        "event": "FELLS POINT WEEKEND #94 (MD)",
        "section": "1: 12-31-11",
        "link": "https://www.uschess.org/msa/XtblMain.php?201201014812.1",
        "pre-rating": 1229,
        "post-rating": 1219,
        "location": "BALTIMORE, MD 21231",
        "final_rank": 12,
        "participants": 13,
        "long": -76.610259,
        "lat": 39.2908816
    },
    {
        "date": "2011-12-17",
        "event": "SCHOLASTIC QUADS 14 (VA)",
        "section": "1: QUAD 1",
        "link": "https://www.uschess.org/msa/XtblMain.php?201112171091.1",
        "pre-rating": 1023,
        "post-rating": 1229,
        "location": "VIENNA, VA 22182",
        "final_rank": 1,
        "participants": 4,
        "long": -77.2651762,
        "lat": 38.9013729
    },
    {
        "date": "2011-12-10",
        "event": "SILVER KNIGHTS CUP (VA)",
        "section": "2: K-3",
        "link": "https://www.uschess.org/msa/XtblMain.php?201112107941.2",
        "pre-rating": 1027,
        "post-rating": 1023,
        "location": "FALLS CHURCH, VA 22043 USA",
        "final_rank": 2,
        "participants": 51,
        "long": -77.1707914,
        "lat": 38.882334
    },
    {
        "date": "2011-12-04",
        "event": "NOVEMBER-DECEMBER TOURNAMENT T (VA)",
        "section": "3: ADVANCED",
        "link": "https://www.uschess.org/msa/XtblMain.php?201112046091.3",
        "pre-rating": 1116,
        "post-rating": 1027,
        "location": "VIENNA, VA 22180      USA",
        "final_rank": 7,
        "participants": 8,
        "long": -77.2722884,
        "lat": 38.8776013
    },
    {
        "date": "2011-11-19",
        "event": "ARLINGTON RUMBLE (VA)",
        "section": "1: K-12 CHAMP",
        "link": "https://www.uschess.org/msa/XtblMain.php?201111191001.1",
        "pre-rating": 950,
        "post-rating": 1116,
        "location": "ARLINGTON, VA 22203 USA",
        "final_rank": 1,
        "participants": 7,
        "long": -77.0877094,
        "lat": 38.8769326
    },
    {
        "date": "2011-11-12",
        "event": "SCHOLASTIC QUADS 13 (VA)",
        "section": "1: SECTION  1",
        "link": "https://www.uschess.org/msa/XtblMain.php?201111129071.1",
        "pre-rating": 910,
        "post-rating": 950,
        "location": "MCLEAN, VA 22101",
        "final_rank": 2,
        "participants": 4,
        "long": -77.1776327,
        "lat": 38.9342888
    },
    {
        "date": "2011-09-10",
        "event": "FALL WARM-UP (VA)",
        "section": "4: K-12 CHAMP",
        "link": "https://www.uschess.org/msa/XtblMain.php?201109105121.4",
        "pre-rating": 873,
        "post-rating": 910,
        "location": "MCLEAN, VA 22101 USA",
        "final_rank": 9,
        "participants": 15,
        "long": -77.1775327,
        "lat": 38.9342888
    },
    {
        "date": "2011-08-20",
        "event": "QUADS 10 (VA)",
        "section": "2: 2",
        "link": "https://www.uschess.org/msa/XtblMain.php?201108208081.2",
        "pre-rating": 830,
        "post-rating": 873,
        "location": "MCLEAN, VA 22010      USA",
        "final_rank": 2,
        "participants": 4,
        "long": -117.7698108,
        "lat": 33.7103606
    },
    {
        "date": "2011-08-14",
        "event": "TOURNAMENT TRAINING (VA)",
        "section": "3: ADVANCED",
        "link": "https://www.uschess.org/msa/XtblMain.php?201108147261.3",
        "pre-rating": 786,
        "post-rating": 830,
        "location": "VIENNA, VA 22180 USA",
        "final_rank": 8,
        "participants": 14,
        "long": -77.2721884,
        "lat": 38.8776013
    },
    {
        "date": "2011-07-24",
        "event": "JULY JOUST (VA)",
        "section": "4: K-12 CHAMP",
        "link": "https://www.uschess.org/msa/XtblMain.php?201107249521.4",
        "pre-rating": 843,
        "post-rating": 786,
        "location": "HERNDON, VA 20171 USA",
        "final_rank": 26,
        "participants": 27,
        "long": -77.3849557,
        "lat": 38.9528369
    },
    {
        "date": "2011-07-16",
        "event": "QUADS 10 (VA)",
        "section": "6: 6",
        "link": "https://www.uschess.org/msa/XtblMain.php?201107167271.6",
        "pre-rating": 798,
        "post-rating": 843,
        "location": "MCLEAN, VA 22101 USA",
        "final_rank": 2,
        "participants": 4,
        "long": -77.1777327,
        "lat": 38.9342888
    },
    {
        "date": "2011-03-26",
        "event": "RATED BEGINNERS OPEN (DC)",
        "section": "1: K-2",
        "link": "https://www.uschess.org/msa/XtblMain.php?201103269351.1",
        "pre-rating": 735,
        "post-rating": 798,
        "location": "WASHINGTON, DC 20005 UNITED STATES",
        "final_rank": 1,
        "participants": 20,
        "long": -77.0375427,
        "lat": 38.8950368
    },
    {
        "date": "2011-03-19",
        "event": "QUADS 6 (VA)",
        "section": "1: QUAD 1",
        "link": "https://www.uschess.org/msa/XtblMain.php?201103197201.1",
        "pre-rating": 743,
        "post-rating": 735,
        "location": "MCLEAN, VA 22101      USA",
        "final_rank": 4,
        "participants": 4,
        "long": -77.1774327,
        "lat": 38.9342888
    },
    {
        "date": "2011-01-15",
        "event": "DC JUNIOR OPEN (DC)",
        "section": "6: UNDER 400",
        "link": "https://www.uschess.org/msa/XtblMain.php?201101163671.6",
        "pre-rating": 513,
        "post-rating": 743,
        "location": "WASHINGTON, DC 20005 UNITED STATES",
        "final_rank": 2,
        "participants": 45,
        "long": -77.0354427,
        "lat": 38.8950368
    },
    {
        "date": "2010-12-11",
        "event": "RATED BEGINNERS OPEN (DC)",
        "section": "1: K-3",
        "link": "https://www.uschess.org/msa/XtblMain.php?201012112691.1",
        "pre-rating": 345,
        "post-rating": 513,
        "location": "WASHINGTON, DC 20005 UNITED STATES",
        "final_rank": 9,
        "participants": 43,
        "long": -77.0376427,
        "lat": 38.8950368
    },
    {
        "date": "2010-07-24",
        "event": "JULY JOUST K-8 U600 (VA)",
        "section": "1: K-8 U-600",
        "link": "https://www.uschess.org/msa/XtblMain.php?201007243291.1",
        "pre-rating": 380,
        "post-rating": 345,
        "location": "CENTREVILLE, VA 20120",
        "final_rank": 23,
        "participants": 31,
        "long": -77.4288769,
        "lat": 38.8403909
    },
    {
        "date": "2010-01-17",
        "event": "DC JUNIOR OPEN (DC)",
        "section": "5: UNDER 600",
        "link": "https://www.uschess.org/msa/XtblMain.php?201001179141.5",
        "pre-rating": 435,
        "post-rating": 380,
        "location": "WASHINGTON, DC 20005 UNITED STATES",
        "final_rank": 31,
        "participants": 64,
        "long": -77.0353427,
        "lat": 38.8950368
    },
    {
        "date": "2009-12-12",
        "event": "RATED BEGINNERS OPEN (DC)",
        "section": "5: K-2",
        "link": "https://www.uschess.org/msa/XtblMain.php?200912128851.5",
        "pre-rating": 0,
        "post-rating": 435,
        "location": "WASHINGTON, DC 20005 UNITED STATES",
        "final_rank": 17,
        "participants": 26,
        "long": -77.0377427,
        "lat": 38.8950368
    },
    {
        "date": "2013-12-18",
        "event": "World Youth Chess Championship 2013. Open U10",
        "section": "Open U10",
        "link": "https://ratings.fide.com/report.phtml?event=90861#:~:text=%C2%A00-,2086581,-Paul%2C%20Justin",
        "location": "Al Ain",
        "final_rank": 66,
        "participants": 190,
        "long": 55.744720,
        "lat": 24.207500
    },
    {
        "date": "2015-10-25",
        "event": "World Youth Chess Championship 2015. Open U12",
        "section": "Open U12",
        "link": "https://chess-results.com/tnr187416.aspx?lan=1&art=1&fed=USA&flag=30#:~:text=5-,50,-69",
        "location": "Porto Carras - Halkidiki",
        "final_rank": 33,
        "participants": 105,
        "long": 23.7949,
        "lat": 40.0782
    },
    {
        "date": "2014-09-12",
        "event": "World Youth Chess Championship 2014. Open U12",
        "section": "Open U12",
        "link": "https://chess-results.com/tnr144246.aspx?lan=1&art=4&turdet=yes&flag=30#:~:text=1687-,33,-Paul%20Justin",
        "location": "Durban - South Africa",
        "final_rank": 69,
        "participants": 202,
        "long": 31.0218,
        "lat": -29.8587
    }
]